{"087cb9532595b3bb788faaf7ec321f53":{"id":"087cb9532595b3bb788faaf7ec321f53","name":"Abreuvoir Bar-Resto","description":"D\u00e9bit de boissons\r\n\r\n\r\n\r\n\r\n\r\n\r\n\r\n\r\n\r\n\r\n\r\n\r\n\r\n\r\n\r\n","openingDate":"2005-09-17","webSiteUrl":"http:\/\/www.abreuvoir.ca","globalStatus":"down","massTransitInfo":"M\u00e9tro Berri-UQAM","contactPhoneNumber":"514-843-5469","civicNumber":"403","streetAddress":"Ontario E.","city":"Montr\u00e9al","province":"Qu\u00e9bec","country":"Canada","postalCode":"H2L 1N5","lat":45.51612,"lng":-73.565297},"3183a0a6d4ed3b2ed44fcb4ec308f129":{"id":"3183a0a6d4ed3b2ed44fcb4ec308f129","name":"Alliance Num\u00e9rique","description":"Point d\u2019acc\u00e8s public au bureau d\u2019Alliance num\u00e9rique - suite 800.\r\n\r\n\r\n\r\n\r\n\r\n\r\n\r\n\r\n\r\n\r\n\r\n\r\n\r\n\r\n\r\n\r\n\r\n\r\n\r\n\r\n","openingDate":"2009-05-27","webSiteUrl":"http:\/\/www.alliancenumerique.com","globalStatus":"up","massTransitInfo":"Metro McGill, sortie La Baie, suite 800","contactPhoneNumber":"(514) 848-7177","civicNumber":"1450","streetAddress":"Rue City Councillors, Suite 800","city":"Montr\u00e9al","province":"QC","country":"CANADA","postalCode":"H3A 2E6","lat":45.505016,"lng":-73.569131},"ad5decf287ad964c9b3423b6b3912f31":{"id":"ad5decf287ad964c9b3423b6b3912f31","name":"Arhoma","description":"\r\n\r\n\r\n\r\n\r\n","openingDate":"2007-10-18","webSiteUrl":"http:\/\/www.arhoma.ca","globalStatus":"up","massTransitInfo":"Metro Joliette, autobus 125","contactPhoneNumber":"514 526-4662","civicNumber":"15","streetAddress":"Place Simon-Valois","city":"Montr\u00e9al","province":"QC","country":"Canada","postalCode":"H1W 0A6","lat":45.547296,"lng":-73.543768},"c010ddcf1014c95043499432a9b53748":{"id":"c010ddcf1014c95043499432a9b53748","name":"Artneuf","description":"Artneuf au Centre Culturel Calixa Lavall\u00e9e\r\n\r\n\r\n\r\n\r\n\r\n\r\n\r\n","openingDate":"2008-05-21","webSiteUrl":"http:\/\/www.artneuf.ca","globalStatus":"up","massTransitInfo":"","contactPhoneNumber":"514-872-3947","civicNumber":"3819","streetAddress":"Calixa-Lavall\u00e9e","city":"Montr\u00e9al","province":"QC","country":"Canada","postalCode":"H2L 2A7","lat":45.527216,"lng":-73.569517},"bfd1820b847a2c20e22205052f6ee168":{"id":"bfd1820b847a2c20e22205052f6ee168","name":"Arts Caf\u00e9","description":"\r\n\r\n\r\n\r\n\r\n\r\n\r\n\r\n\r\n\r\n\r\n\r\n\r\n\r\n","openingDate":"2006-06-15","webSiteUrl":"","globalStatus":"up","massTransitInfo":"M\u00e9tro Laurier+Bus 51 O. ou M\u00e9tro Parc+80 S.","contactPhoneNumber":"514-274-0919","civicNumber":"201","streetAddress":"Fairmount O.","city":"Montr\u00e9al","province":"Qc","country":"Canada","postalCode":"H2T 2M8","lat":45.52151,"lng":-73.59679},"655246a7f46a54232495142847fb07c7":{"id":"655246a7f46a54232495142847fb07c7","name":"Atelier de l'artiste Bourjoi","description":"Atelier d'Art de L\u00e9o-Paul Bourgeois, avec antenne pour partager sa connexion internet avec son voisinage, incluant le Parc Rouville.\r\n\r\n\r\n\r\n\r\n\r\n\r\n\r\n\r\n\r\n\r\n\r\n\r\n\r\n\r\n\r\n\r\n\r\n\r\n\r\n\r\n\r\n\r\n\r\n\r\n\r\n","openingDate":"2008-03-06","webSiteUrl":"http:\/\/www.bourjoi.com","globalStatus":"down","massTransitInfo":"M\u00e9tro Pr\u00e9fontaine ou M\u00e9tro Papineau, autobus 34","contactPhoneNumber":"514-804-9508 ","civicNumber":"3230","streetAddress":"rue de Rouville","city":"Montr\u00e9al","province":"Qu\u00e9bec","country":"Canada","postalCode":"H1W 2B3","lat":45.539899,"lng":-73.541589},"ce31ac5e9d6b81a17c3720faa7372410":{"id":"ce31ac5e9d6b81a17c3720faa7372410","name":"Atomic Caf\u00e9 \/ Le 7i\u00e8me","description":"Atomic Caf\u00e9 \/ Le 7i\u00e8me\r\n\r\n\r\n\r\n\r\n","openingDate":"2005-06-06","webSiteUrl":"http:\/\/www.leseptieme.com\/","globalStatus":"up","massTransitInfo":"metro Joliette","contactPhoneNumber":"(514) 525-9601","civicNumber":"3606","streetAddress":"Ontario E.","city":"Montr\u00e9al","province":"Qu\u00e9bec","country":"Canada","postalCode":"H1W 1R7","lat":45.545207,"lng":-73.544562},"5d0cf12a0af5ced9b6844ea637d8cc1d":{"id":"5d0cf12a0af5ced9b6844ea637d8cc1d","name":"Atwater Library","description":"Biblioth\u00e8que\r\n\r\n\r\n\r\n\r\n","openingDate":"2004-11-02","webSiteUrl":"http:\/\/www.atwaterlibrary.ca\/","globalStatus":"up","massTransitInfo":"Metro Atwater","contactPhoneNumber":"(514) 935-7344","civicNumber":"1200","streetAddress":"rue Atwater","city":"Montr\u00e9al","province":"Qu\u00e9bec","country":"Canada","postalCode":"H3Z 1X4","lat":45.488742,"lng":-73.584055},"ab2123fadaeb9bff129b0ef9f0058de6":{"id":"ab2123fadaeb9bff129b0ef9f0058de6","name":"Atwater Library - Cabot Square Ant.","description":"Cabot Square, coin Atwater et Tupper, en face de la biblioth\u00e8que Atwater et de l'Hopital pour Enfants\r\n\r\n\r\n\r\n\r\n","openingDate":"2005-04-09","webSiteUrl":"http:\/\/www.atwaterlibrary.ca","globalStatus":"up","massTransitInfo":"M\u00e9tro Atwater","contactPhoneNumber":"(514) 935-7344","civicNumber":"1200","streetAddress":"rue Atwater (coin Ste-Catherine Ouest)","city":"Montr\u00e9al","province":"Qu\u00e9bec","country":"CANADA","postalCode":"H3Z 1X4","lat":45.489073,"lng":-73.583829},"7587c7bb68ecb39a7d6557931ace33b3":{"id":"7587c7bb68ecb39a7d6557931ace33b3","name":"Auberge Alternative du Vieux-Montr\u00e9al","description":"\r\n\r\n\r\n","openingDate":"2005-12-04","webSiteUrl":"http:\/\/www.auberge-alternative.qc.ca","globalStatus":"up","massTransitInfo":"Metro Square-Victoria+walk due south","contactPhoneNumber":"(514) 282-8069","civicNumber":"358","streetAddress":"rue St-Pierre","city":"Montr\u00e9al","province":"Qu\u00e9bec","country":"Canada","postalCode":"H2Y 2M1","lat":45.501008,"lng":-73.556042},"c153a07e41ee1e151c64b62162f2e4bb":{"id":"c153a07e41ee1e151c64b62162f2e4bb","name":"Audiotopie.org","description":"Site de developement pour le projet Audiotopie.\r\n\r\n\r\n\r\n\r\n\r\n","openingDate":"2009-09-01","webSiteUrl":"http:\/\/www.audiotopie.org","globalStatus":"up","massTransitInfo":"Metro Rosemont","contactPhoneNumber":"(514) 563-1300","civicNumber":"5989","streetAddress":"Ave. de Chateuabriand","city":"Montreal","province":"QC","country":"CANADA","postalCode":"H2S 2N3","lat":45.534634,"lng":-73.601736},"02e3bd1b64d4b3b053941f89f7a3631f":{"id":"02e3bd1b64d4b3b053941f89f7a3631f","name":"Autour d'Un Pain (Mont-Royal)","description":"Boulangerie artisanale\r\nPains biologiques\r\n\r\n\r\n\r\n\r\n\r\n\r\n\r\n\r\n","openingDate":"2008-11-04","webSiteUrl":"http:\/\/pages.infinit.net\/painsbio\/","globalStatus":"down","massTransitInfo":"M\u00e9tro Mont-Royal, autobus 97 ouest","contactPhoneNumber":"514-843-0728","civicNumber":"100","streetAddress":"av. du Mont-Royal O.","city":"Montr\u00e9al","province":"Qu\u00e9bec","country":"Canada","postalCode":"H2T 2T1","lat":45.518802,"lng":-73.587505},"aa354ef9df5037fa834d645b3ad02da7":{"id":"aa354ef9df5037fa834d645b3ad02da7","name":"Bar Chez Baptiste","description":"Brasserie conviviale. Plusieurs produits de micro-brasseries locales (Belle-Gueule, L'Alchimiste, Unibroue,etc.)Tables de Babyfoot, \u00e9crans-g\u00e9ants.\r\n\r\n\r\n\r\n","openingDate":"2006-12-11","webSiteUrl":"","globalStatus":"up","massTransitInfo":"Metro Mont-Royal","contactPhoneNumber":"(514) 522-1384","civicNumber":"1045","streetAddress":"Avenue Mont-Royal","city":"Montreal","province":"Qu\u00e9bec","country":"Canada","postalCode":"H2J 1X7","lat":45.528003,"lng":-73.579214},"7cc8b77574cae1385ff169dcf0f3aee5":{"id":"7cc8b77574cae1385ff169dcf0f3aee5","name":"Bar Chez Baptiste sur Masson","description":"Brasserie conviviale. Plusieurs produits de micro-brasseries locales (Belle-Gueule, L'Alchimiste, Unibroue,etc.)Tables de Babyfoot, \u00e9crans-g\u00e9ants.\r\n\r\n\r\n\r\n\r\n\r\n","openingDate":"2008-11-25","webSiteUrl":"","globalStatus":"up","massTransitInfo":"","contactPhoneNumber":"","civicNumber":"3014","streetAddress":"rue Masson","city":"Montr\u00e9al","province":"QC","country":"Canada","postalCode":"H1Y 1X6","lat":45.548988,"lng":-73.574314},"ad94044160c2d2be027c1b748191954a":{"id":"ad94044160c2d2be027c1b748191954a","name":"Bar Inc.","description":"Pourvoyeur de bonnes liqueurs\r\n\r\n\r\n\r\n\r\n\r\n\r\n\r\n\r\n\r\n\r\n\r\n","openingDate":"2007-08-20","webSiteUrl":"","globalStatus":"up","massTransitInfo":"Metro Mont-Royal, marcher vers l'ouest sur mont-royal","contactPhoneNumber":"514-845-7946 ","civicNumber":"250","streetAddress":"avenue Mont-Royal","city":"Montr\u00e9al","province":"Qu\u00e9bec","country":"Canada","postalCode":"H2T 1P5","lat":45.522798,"lng":-73.583942},"d6f8591ee611157e3b995de031e0412f":{"id":"d6f8591ee611157e3b995de031e0412f","name":"Barraca Rhumerie & Tapas","description":"Caf\u00e9 \/ Bar\r\n\r\n","openingDate":"2004-11-17","webSiteUrl":"","globalStatus":"up","massTransitInfo":"M\u00e9tro Mont-Royal","contactPhoneNumber":"514-525-7741","civicNumber":"1134","streetAddress":"Mont-Royal E. (coin Christophe-Colomb)","city":"Montr\u00e9al","province":"Qu\u00e9bec","country":"Canada","postalCode":"H2J1X8","lat":45.527757,"lng":-73.579183},"d0bb074e86be1cdf2ca9f19411924bcd":{"id":"d0bb074e86be1cdf2ca9f19411924bcd","name":"Bar Yer Mad","description":"\r\n\r\n","openingDate":"2006-11-23","webSiteUrl":"","globalStatus":"up","massTransitInfo":"Metro Berri-Uqam","contactPhoneNumber":"514-522-9392","civicNumber":"901","streetAddress":"de Maisonneuve Est","city":"Montreal","province":"QC","country":"CANADA","postalCode":"H2L 1Z2","lat":45.517283,"lng":-73.559284},"0511d8eb8665cd095e76d0b3e93897dc":{"id":"0511d8eb8665cd095e76d0b3e93897dc","name":"Bar Zo\u00e9 Karaoke & Cocktails","description":"","openingDate":"2006-02-24","webSiteUrl":"http:\/\/www.barzoe.com\/","globalStatus":"up","massTransitInfo":"","contactPhoneNumber":"514-374-0666","civicNumber":"3296","streetAddress":"Jean-Talon E.","city":"Montr\u00e9al","province":"Qu\u00e9bec","country":"Canada","postalCode":"H2A1W3","lat":45.559448,"lng":-73.597632},"d9693c562a56bb3167f9569d18154904":{"id":"d9693c562a56bb3167f9569d18154904","name":"Bistro Etc","description":"\r\n\r\n\r\n\r\n\r\n\r\n\r\n\r\n\r\n\r\n\r\n\r\n\r\n\r\n\r\n\r\n\r\n\r\n","openingDate":"2005-10-27","webSiteUrl":"http:\/\/www.bistroetc.ca","globalStatus":"up","massTransitInfo":"M\u00e9tro Mont-Royal + Bus Mont-royal","contactPhoneNumber":"514-525-1895","civicNumber":"1291","streetAddress":"Mont-Royal E.","city":"Montr\u00e9al","province":"Qu\u00e9bec","country":"Canada","postalCode":"H2J1Y4","lat":45.529741,"lng":-73.577864},"e20951c959a5d364537665d215635660":{"id":"e20951c959a5d364537665d215635660","name":"Bistro InViVo","description":"Bistro Culturel Engag\u00e9\r\n\r\n\r\n\r\n\r\n\r\n\r\n\r\n\r\n\r\n\r\n\r\n\r\n\r\n\r\n\r\n\r\n","openingDate":"2005-11-01","webSiteUrl":"http:\/\/www.bistroinvivo.coop","globalStatus":"up","massTransitInfo":"M\u00e9tro Viau+Bus 34 et 125 O. ou M\u00e9tro Papineau+Bus 34 E","contactPhoneNumber":"514-223-8116","civicNumber":"4731","streetAddress":"Sainte-Catherine","city":"Montr\u00e9al","province":"Qu\u00e9bec","country":"Canada","postalCode":"H1V1Z3","lat":45.554883,"lng":-73.531428},"a9f5d6dd404851ffdfbe699957dc9dc0":{"id":"a9f5d6dd404851ffdfbe699957dc9dc0","name":"Bistro Part Ici","description":" \t\r\n\r\nLA CUISINE DU MARCH\u00c9 \u00c0 SAVEUR SOCIALE!\r\n\r\nDernier-n\u00e9 des Projets PART, le bistro se distingue par sa cuisine savoureuse, la qualit\u00e9 de ses produits, son atmosph\u00e8re lumineuse et son rapport qualit\u00e9-prix incomparable. Situ\u00e9e en plein coeur du quartier Rosemont, cette entreprise d\u2019\u00e9conomie sociale poursuit l\u2019action en sant\u00e9 mentale men\u00e9e par les Projets PART en favorisant l\u2019int\u00e9gration professionnelle par la formation.\r\n\r\nQue ce soit pour une r\u00e9union, un d\u00eener d\u2019affaires, une rencontre amicale, un d\u00e9jeuner familial, un 5 \u00e0 7 entre coll\u00e8gues, une conf\u00e9rence de presse ou simplement pour le plaisir d\u2019\u00eatre ensemble, l\u2019\u00e9quipe du bistro saura vous ravir!\r\n\r\n","openingDate":"2005-11-26","webSiteUrl":"http:\/\/www.projetspart.ca","globalStatus":"up","massTransitInfo":"Metro Joliette + Bus 67 ou Metro Mont-royal + Bus 97","contactPhoneNumber":"514-526-7278 ext 238","civicNumber":"4100","streetAddress":"Andr\u00e9-Laurendeau","city":"Montr\u00e9al","province":"Qu\u00e9bec","country":"Canada","postalCode":"H1Y1N6","lat":45.5427,"lng":-73.5621},"3b5e4f15746c566da02babcfcb4f850c":{"id":"3b5e4f15746c566da02babcfcb4f850c","name":"Blanc De Blanc","description":"Kaf\u00e9-Lavomatik charmant dans le Mile End.\r\n\r\n\r\n\r\n\r\n\r\n\r\n\r\n\r\n\r\n\r\n\r\n","openingDate":"2007-06-03","webSiteUrl":"","globalStatus":"up","massTransitInfo":"Autobus 80 du Parc","contactPhoneNumber":"(514) 281-0690","civicNumber":"248","streetAddress":"Rue Villeneuve","city":"Montr\u00e9al","province":"Qu\u00e9bec","country":"Canada","postalCode":"H2T 2R7","lat":45.518977,"lng":-73.591619},"4d70f352c0ae99348fb43225d541341d":{"id":"4d70f352c0ae99348fb43225d541341d","name":"Boccacinos","description":"\r\n\r\n\r\n","openingDate":"2009-12-20","webSiteUrl":"http:\/\/www.boccacinos.com","globalStatus":"up","massTransitInfo":"Metro McGill entre Ste-Catherine O. et Place Ville-Marie","contactPhoneNumber":"(514) 861-5742","civicNumber":"1251","streetAddress":"McGill College","city":"Montreal","province":"QC","country":"CANADA","postalCode":"H3B 2Y4","lat":45.501534,"lng":-73.570504},"d19a8afdea3eacc630f288c04162d748":{"id":"d19a8afdea3eacc630f288c04162d748","name":"Boris Bistro","description":"\r\n\r\n\r\n\r\n\r\n\r\n\r\n\r\n","openingDate":"2009-04-28","webSiteUrl":"www.borisbistro.com","globalStatus":"down","massTransitInfo":"","contactPhoneNumber":"514-848-9575","civicNumber":"465","streetAddress":"Rue McGill","city":"Montreal","province":"QC","country":"CANADA","postalCode":"H2Y 2H1","lat":45.500775,"lng":-73.558735},"4813d70a375407639cd0d3b96fcbb5f2":{"id":"4813d70a375407639cd0d3b96fcbb5f2","name":"Boulangerie & P\u00e2tisserie Salerno","description":"Caf\u00e9, boulangerie\r\n\r\n\r\n\r\n\r\n\r\n\r\n\r\n","openingDate":"2005-09-17","webSiteUrl":"","globalStatus":"up","massTransitInfo":"M\u00e9tro Sauv\u00e9","contactPhoneNumber":"514-384-9142","civicNumber":"2411","streetAddress":"Charland","city":"Montr\u00e9al","province":"Qu\u00e9bec","country":"Canada","postalCode":"H1Z 1B9","lat":45.570965,"lng":-73.639631},"2cfb21d34a7ad593d8e820c2da5b9a30":{"id":"2cfb21d34a7ad593d8e820c2da5b9a30","name":"Brasserie Cherrier","description":"Brasserie avec terrasse. Repas servis de 11H \u00e0 20H du lundi au vendredi. Tables de billard\r\n\r\n","openingDate":"2007-09-24","webSiteUrl":"","globalStatus":"up","massTransitInfo":"Metro Sherbrooke","contactPhoneNumber":"514 843-6425","civicNumber":"3638","streetAddress":"St-Denis","city":"Montr\u00e9al","province":"QC","country":"Canada","postalCode":"H2X 3L7","lat":45.518063,"lng":-73.569837},"30fee584bc0bb3a89fb9ec13e4680f8d":{"id":"30fee584bc0bb3a89fb9ec13e4680f8d","name":"Buanderie Net-Net","description":"Lav-o-mat amicale\r\n\r\n\r\n\r\n\r\n\r\n\r\n\r\n\r\n","openingDate":"2008-08-06","webSiteUrl":"","globalStatus":"up","massTransitInfo":"","contactPhoneNumber":"514-844-8511","civicNumber":"310","streetAddress":"Avenue Duluth Est","city":"Montr\u00e9al","province":"Qu\u00e9bec","country":"Canada","postalCode":"H2W 1H9","lat":45.519882,"lng":-73.576712},"8dac2086a67931b5024d91b6aac208f2":{"id":"8dac2086a67931b5024d91b6aac208f2","name":"Burritoville Bishop","description":"Vegetarian Tex-Mex-style food, just across from the Henry F. Hall Pavillion, Concordia Universty.\r\n\r\n\r\n\r\n\r\n\r\n\r\n\r\n\r\n\r\n\r\n\r\n\r\n\r\n\r\n\r\n","openingDate":"2008-11-05","webSiteUrl":"","globalStatus":"up","massTransitInfo":"M\u00e9tro Guy-Concordia","contactPhoneNumber":"514-286-2776","civicNumber":"2055","streetAddress":"Bishop St.","city":"Montr\u00e9al","province":"Qu\u00e9bec","country":"Canada","postalCode":"H3G 2E8","lat":45.49777,"lng":-73.578561},"fd26589580f7e6cb64a1eae783341ea3":{"id":"fd26589580f7e6cb64a1eae783341ea3","name":"Caf\u00e9 92 \u00b0","description":"Caf\u00e9 acceuillant au NDG pr\u00e8s du campus Loyola, Universit\u00e9 Concordia\r\n\r\n\r\n\r\n\r\n\r\n\r\n\r\n\r\n","openingDate":"2008-05-08","webSiteUrl":"","globalStatus":"up","massTransitInfo":"M\u00e9tro Vend\u00f4me, Autobus 105","contactPhoneNumber":"514-750-4392","civicNumber":"6703","streetAddress":"rue Sherbrooke Ouest","city":"Montr\u00e9al","province":"Qu\u00e9bec","country":"Canada","postalCode":"H4B 1P3","lat":45.462225,"lng":-73.631753},"2598b31911c287c77ae22db8b9d7ede1":{"id":"2598b31911c287c77ae22db8b9d7ede1","name":"Caf\u00e9 Art Java","description":"Friends don't let friends drink Starbucks!\r\n\r\n\r\n\r\n\r\n\r\n","openingDate":"2005-12-04","webSiteUrl":"http:\/\/www.cafeartjava.com","globalStatus":"up","massTransitInfo":"","contactPhoneNumber":"514-527-9990","civicNumber":"837","streetAddress":"Mont-Royal E.","city":"Montr\u00e9al","province":"Qu\u00e9bec","country":"Canada","postalCode":"H2J 1W9","lat":45.526281,"lng":-73.581},"379c7c012e4b3be00a0eec527722b2dd":{"id":"379c7c012e4b3be00a0eec527722b2dd","name":"Caf\u00e9-Bar Le Boudoir","description":"Caf\u00e9 bar de quartier au coeur du plateau.","openingDate":"2006-12-13","webSiteUrl":"","globalStatus":"up","massTransitInfo":"Metro Mont-Royal","contactPhoneNumber":"(514) 526-2819","civicNumber":"850","streetAddress":"avenue du Mont-Royal, est","city":"Montr\u00e9al","province":"Qu\u00e9bec","country":"Canada","postalCode":"H2J 1X1","lat":45.525911,"lng":-73.581137},"90132c205b0df30b3789094b8b8cfd6d":{"id":"90132c205b0df30b3789094b8b8cfd6d","name":"Caf\u00e9 Cagibi","description":"Caf\u00e9-resto in Mile End\r\n\r\n\r\n\r\n\r\n\r\n\r\n\r\n\r\n","openingDate":"2007-06-19","webSiteUrl":"http:\/\/www.lecagibi.ca\/","globalStatus":"up","massTransitInfo":"Bus 55","contactPhoneNumber":"(514) 509-1199","civicNumber":"5490","streetAddress":"boul St. Laurent","city":"Montreal","province":"Quebec","country":"Canada","postalCode":"H2T 1S1","lat":45.525858,"lng":-73.598889},"b687fc804e1f2b49e428a6ee93e5d9c1":{"id":"b687fc804e1f2b49e428a6ee93e5d9c1","name":"Caf\u00e9 Chaos","description":"Caf\u00e9 Chaos\r\n\r\n\r\n\r\n\r\n\r\n","openingDate":"2005-05-03","webSiteUrl":"","globalStatus":"down","massTransitInfo":"","contactPhoneNumber":"(514) 844-1301","civicNumber":"2035","streetAddress":"rue Saint-Denis","city":"Montr\u00e9al","province":"Qu\u00e9bec","country":"Canada","postalCode":"H2X 3K8","lat":45.516451,"lng":-73.565729},"be5ca09fcfc658b302b542536b4db647":{"id":"be5ca09fcfc658b302b542536b4db647","name":"Caf\u00e9 Cherrier","description":"\r\n\r\n\r\n\r\n\r\n","openingDate":"2009-07-14","webSiteUrl":"http:\/\/www.cafecherrier.com","globalStatus":"up","massTransitInfo":"Metro Sherbrooke, marcher vers le nord sur St-Denis","contactPhoneNumber":"(514) 843-4308","civicNumber":"3635","streetAddress":"Saint-Denis","city":"Montreal","province":"QC","country":"CANADA","postalCode":"H2X 3L6","lat":45.518106,"lng":-73.569925},"5e4adc16cb8f31b1cbf053566221a65b":{"id":"5e4adc16cb8f31b1cbf053566221a65b","name":"Caf\u00e9 Compagnie F.","description":"Initiation \u00e0 l'entrepeneurship au f\u00e9minin.\r\n\r\n\r\n","openingDate":"2005-09-07","webSiteUrl":"http:\/\/www.compagnie-f.org","globalStatus":"up","massTransitInfo":"M\u00e9tro Beaubien","contactPhoneNumber":"514-381-7333","civicNumber":"6323","streetAddress":"rue St-Hubert","city":"Montr\u00e9al","province":"Qu\u00e9bec","country":"Canada","postalCode":"H2S 2L9","lat":45.535436,"lng":-73.601138},"49d4f8f56767f7643bea84e68c29c452":{"id":"49d4f8f56767f7643bea84e68c29c452","name":"Caf\u00e9 Della Via","description":"\r\n\r\n\r\n\r\n\r\n\r\n\r\n\r\n\r\n\r\n\r\n","openingDate":"2009-09-01","webSiteUrl":"","globalStatus":"up","massTransitInfo":"","contactPhoneNumber":"(514) 212-4060","civicNumber":"244","streetAddress":"de Castelnau E","city":"Montreal","province":"QC","country":"CANADA","postalCode":"H2R 1P5","lat":45.537269,"lng":-73.618029},"89a7c37f7e1c887c6d70639891387f57":{"id":"89a7c37f7e1c887c6d70639891387f57","name":"Caf\u00e9 des Bois","description":"Sympathique caf\u00e9 de quartier situ\u00e9 au coin Mont-Royal and Fullum.\r\n\r\n\r\n\r\n\r\n\r\n\r\n\r\n\r\n\r\n\r\n\r\n\r\n","openingDate":"2007-09-18","webSiteUrl":"","globalStatus":"up","massTransitInfo":"M\u00e9tro Mont-Royal, autobus 97","contactPhoneNumber":"(514) 678-8460","civicNumber":"2296","streetAddress":"avenue Mont-Royal Est","city":"Montr\u00e9al","province":"Qu\u00e9bec","country":"Canada","postalCode":"H2H 1K6","lat":45.537449,"lng":-73.570276},"b6744d5691705e0375bde493cdef2059":{"id":"b6744d5691705e0375bde493cdef2059","name":"Caf\u00e9 Double","description":"\r\n\r\n\r\n\r\n\r\n\r\n\r\n","openingDate":"2005-10-29","webSiteUrl":"","globalStatus":"up","massTransitInfo":"","contactPhoneNumber":"(514) 935-8483","civicNumber":"1751","streetAddress":"rue Richardson","city":"Montr\u00e9al","province":"QC","country":"CANADA","postalCode":"H3K 1G6","lat":45.484047,"lng":-73.562138},"9751dd73c5c422e6228aef7034e3aef9":{"id":"9751dd73c5c422e6228aef7034e3aef9","name":"Caf\u00e9 Frutt","description":"\r\n\r\n\r\n\r\n\r\n\r\n\r\n\r\n","openingDate":"2009-09-14","webSiteUrl":"","globalStatus":"up","massTransitInfo":"Metro Snowdon, marche vers Decarie et nord","contactPhoneNumber":"(514) 564-8225","civicNumber":"5345","streetAddress":"Boul. Decarie","city":"Montreal","province":"QC","country":"CANADA","postalCode":"H3W 3C4","lat":45.485636,"lng":-73.632935},"6365f8327a408269acfd4e4253e5b5d5":{"id":"6365f8327a408269acfd4e4253e5b5d5","name":"Caf\u00e9 Gervasi","description":"Caf\u00e9 Italien, Expresso, Excellent dishes every day.\r\n\r\n\r\n\r\n\r\n\r\n\r\n\r\n\r\n\r\n\r\n\r\n\r\n\r\n\r\n\r\n\r\n","openingDate":"2006-12-04","webSiteUrl":"","globalStatus":"up","massTransitInfo":"","contactPhoneNumber":"514-328-0556","civicNumber":"8593","streetAddress":"Boulevard Langelier","city":"Montr\u00e9al","province":"Qu\u00e9bec","country":"Canada","postalCode":"H1P 2C6","lat":45.598659,"lng":-73.590839},"8f4339641979bdea2af1ea9b123e5c70":{"id":"8f4339641979bdea2af1ea9b123e5c70","name":"Caf\u00e9 Kilo St-Denis","description":"\r\n\r\n\r\n\r\n\r\n\r\n","openingDate":"2009-01-07","webSiteUrl":"","globalStatus":"up","massTransitInfo":"","contactPhoneNumber":"(514) 906-0649","civicNumber":"1254a","streetAddress":"St-Denis","city":"Montr\u00e9al","province":"QC","country":"CANADA","postalCode":"H2X 3J6","lat":45.513432,"lng":-73.55972},"bd88a46689089ee5622e667ba1ab70e4":{"id":"bd88a46689089ee5622e667ba1ab70e4","name":"Caf\u00e9 La Kazamis","description":"\r\n\r\n\r\n\r\n\r\n\r\n\r\n","openingDate":"2010-02-03","webSiteUrl":"","globalStatus":"down","massTransitInfo":"Autobus 80, 51 ou 535","contactPhoneNumber":"(514) 439-0935","civicNumber":"5611","streetAddress":"Avenue Du Parc","city":"Montr\u00e9al","province":"QC","country":"CANADA","postalCode":"H2V 4G5","lat":45.522439,"lng":-73.602194},"795a4ab0a3f63092eaa77ac1142c8c2e":{"id":"795a4ab0a3f63092eaa77ac1142c8c2e","name":"Caf\u00e9 Le Victoria","description":"\r\n\r\n\r\n\r\n\r\n","openingDate":"2009-09-11","webSiteUrl":"","globalStatus":"up","massTransitInfo":"Metro Verdun","contactPhoneNumber":"(514) 564-8088","civicNumber":"4559","streetAddress":"rue Wellington","city":"Montreal","province":"QC","country":"CANADA","postalCode":"H4G 1W8","lat":45.458678,"lng":-73.567489},"fab973be8ae731a0f41c9ef815b17507":{"id":"fab973be8ae731a0f41c9ef815b17507","name":"Caf\u00e9 L\u00e9zard","description":"L\u00e9zarder\u2026\r\n\u00ab Faire le l\u00e9zard, paresser au soleil. \u00bb Cette d\u00e9finition du Petit Robert d\u00e9crit bien cet endroit sympathique qui vous invite \u00e0 prendre votre temps, plong\u00e9 dans un bon bouquin ou engag\u00e9 dans une conversation amicale. \u00c0 mi-chemin entre le resto et le caf\u00e9, ce L\u00e9zard hybride a \u00e9lu domicile au c\u0153ur du quartier Rosemont, un quartier grouillant de vitalit\u00e9.\r\n\r\n\r\n\r\n\r\n\r\n\r\n\r\n\r\n\r\n\r\n\r\n\r\n\r\n\r\n\r\n","openingDate":"2007-02-10","webSiteUrl":"","globalStatus":"up","massTransitInfo":"M\u00e9tro Laurier, autobus 47","contactPhoneNumber":"(514) 729-3777","civicNumber":"3119","streetAddress":"rue Masson","city":"Montr\u00e9al","province":"Qu\u00e9bec","country":"Canada","postalCode":"H1Y 1X9","lat":45.5495,"lng":-73.57414},"ecc19008e86d31c2080ea14c2cb1d46b":{"id":"ecc19008e86d31c2080ea14c2cb1d46b","name":"Caf\u00e9 L\u00e9zard sur Beaubien","description":"Chaleureux caf\u00e9 o\u00f9 nous sommes invit\u00e9.e.s \u00e0 \u00e9changer un livre contre un de ceux sur la biblioth\u00e8que. Prestations musicales et installations artistiques meublent l'espace. Le caf\u00e9 de Santropol y est disponible.\r\n\r\n\r\n","openingDate":"2009-08-03","webSiteUrl":"","globalStatus":"up","massTransitInfo":"M\u00e9tro Beaubien + autobus 18","contactPhoneNumber":"5149039222","civicNumber":"1335","streetAddress":"Beaubien est","city":"Montr\u00e9al","province":"Qu\u00e9bec","country":"Canada","postalCode":"H2G 1K7","lat":45.540497,"lng":-73.599076},"ca3a63613b9830748cb039938505e220":{"id":"ca3a63613b9830748cb039938505e220","name":"Caf\u00e9 Phazes","description":"\r\n\r\n\r\n\r\n\r\n\r\n\r\n\r\n\r\n","openingDate":"2009-11-04","webSiteUrl":"http:\/\/www.cafephazes.com","globalStatus":"up","massTransitInfo":"","contactPhoneNumber":"(514) 385-9912","civicNumber":"2827","streetAddress":"Boul. Henri-Bourassa Est","city":"Montreal","province":"QC","country":"CANADA","postalCode":"H2B 1V9","lat":45.580902,"lng":-73.651754},"c8c723ad888543a8048320b32a2d139b":{"id":"c8c723ad888543a8048320b32a2d139b","name":"Caf\u00e9 S\u00e9same","description":"Dans un d\u00e9cor des plus chaleureux, le Caf\u00e9 S\u00e9same se veut avant tout un lieu de rencontre et de socialisation mis \u00e0 la disposition de tous. Dans un esprit de mixit\u00e9 sociale, le Caf\u00e9 offre, le midi, un d\u00eener trois services plus caf\u00e9, th\u00e9 ou tisane \u00e0 un prix des plus \u00e9conomiques. Les repas sont toujours cuisin\u00e9s le jour m\u00eame avec des aliments frais appr\u00eat\u00e9s parfois de mani\u00e8re fort original.\r\n\r\n\r\n\r\n\r\n\r\n\r\n\r\n","openingDate":"2010-01-21","webSiteUrl":"http:\/\/www.lesesame.org\/cafe_sesame.html","globalStatus":"up","massTransitInfo":"M\u00e9tro Honor\u00e9-Beaugrand et autobus 185 ou 189","contactPhoneNumber":"514-493-7656","civicNumber":"8628","streetAddress":"Hochelaga Est","city":"Montr\u00e9al","province":"QC","country":"CANADA","postalCode":"H1L 2M4","lat":45.600498,"lng":-73.520431},"8a833ce7cf2661bf5a545f7274f35173":{"id":"8a833ce7cf2661bf5a545f7274f35173","name":"Caf\u00e9 Victoria","description":"Excellent caf\u00e9 dans St-L\u00e9onard, acc\u00e8s facile en voiture (stationnement)\r\n\r\n\r\n\r\n\r\n\r\n\r\n\r\n\r\n\r\n\r\n\r\n\r\n\r\n\r\n\r\n\r\n\r\n\r\n\r\n\r\n\r\n\r\n\r\n\r\n\r\n\r\n\r\n\r\n\r\n\r\n","openingDate":"2004-11-13","webSiteUrl":"","globalStatus":"up","massTransitInfo":"Metro Langelier","contactPhoneNumber":"514-327-7877","civicNumber":"8600","streetAddress":"Boul. Langelier","city":"Montr\u00e9al","province":"Qu\u00e9bec","country":"Canada","postalCode":"H1P 2Y7","lat":45.59829,"lng":-73.590942},"5dd1ac6f1ca1f2ac561d80c4abf2febf":{"id":"5dd1ac6f1ca1f2ac561d80c4abf2febf","name":"Capriccio","description":"\r\n\r\n\r\n\r\n\r\n\r\n\r\n\r\n","openingDate":"2009-10-13","webSiteUrl":"http:\/\/www.ristocapriccio.com","globalStatus":"up","massTransitInfo":"Metro Champ-de-Mars, marcher vers Vieux Montreal","contactPhoneNumber":"(514) 903-2909","civicNumber":"17","streetAddress":"rue Notre-Dame Ouest (coin St-Laurent)","city":"Montreal","province":"QC","country":"CANADA","postalCode":"H2Y 1S5","lat":45.505723,"lng":-73.556063},"6dc14de4120f72f2675601573b468e44":{"id":"6dc14de4120f72f2675601573b468e44","name":"Centre communautaire de loisir Cote des Neiges","description":"\r\nCentre communautaire de loisir Cote des Neiges\r\n\r\n\r\n\r\n","openingDate":"2009-04-15","webSiteUrl":"","globalStatus":"up","massTransitInfo":"Metro Cote des Neiges","contactPhoneNumber":"(514) 733-1478","civicNumber":"5347","streetAddress":"Cote des Neiges","city":"Montreal","province":"QC","country":"CANADA","postalCode":"H3T 1Y4","lat":45.496644,"lng":-73.622986},"d88145b1aa5742d943bd649208086759":{"id":"d88145b1aa5742d943bd649208086759","name":"Centre communautaire de loisir Lajeunesse","description":"Centre communautaire \r\n\r\n\r\n\r\n\r\n\r\n\r\n","openingDate":"2008-10-31","webSiteUrl":"http:\/\/www.centrelajeunesse.org","globalStatus":"up","massTransitInfo":"M\u00e9tro Jean-Talon","contactPhoneNumber":"(514) 278-2654","civicNumber":"7378","streetAddress":"boul. Lajeunesse","city":"Montr\u00e9al","province":"QC","country":"CANADA","postalCode":"H2R 2H8","lat":45.540488,"lng":-73.617254},"6bbddfe5bf0ad7a8bf0af682b8e011c8":{"id":"6bbddfe5bf0ad7a8bf0af682b8e011c8","name":"Centre communautaire de loisir Lajeunesse Station 13-17","description":"\r\n\r\n\r\n\r\n\r\n\r\n\r\n\r\n\r\n\r\n\r\n\r\n","openingDate":"2008-10-24","webSiteUrl":"Http:\/\/www.centrelajeunesse.org","globalStatus":"down","massTransitInfo":"M\u00e9tro Jean-Talon","contactPhoneNumber":"(514) 872-0295","civicNumber":"7378","streetAddress":"boul. Lajeunesse","city":"Montr\u00e9al","province":"QC","country":"CANADA","postalCode":"H2R 2H8","lat":45.540534,"lng":-73.617152},"5bb1a794a4f0b7f42d16bf7fcc5b5646":{"id":"5bb1a794a4f0b7f42d16bf7fcc5b5646","name":"Centre communautaire de Loisir St-Michel 01","description":"\r\n\r\n\r\n\r\n\r\n","openingDate":"2008-11-21","webSiteUrl":"","globalStatus":"up","massTransitInfo":"M\u00e9tro St-Michel","contactPhoneNumber":"514-872-3498","civicNumber":"7110","streetAddress":"8 i\u00e8me avenue","city":"Montr\u00e9al","province":"QC","country":"Canada","postalCode":"H2A 3C4","lat":45.555738,"lng":-73.597558},"4fd3d04a379e90af65f25ebc1d50e8ef":{"id":"4fd3d04a379e90af65f25ebc1d50e8ef","name":"Centre communautaire de Loisir St-Michel 02","description":"\r\n\r\n\r\n\r\n","openingDate":"2008-11-21","webSiteUrl":"","globalStatus":"up","massTransitInfo":"","contactPhoneNumber":"(514) 872-3498","civicNumber":"7110","streetAddress":"8 i\u00e8me avenue","city":"Montreal","province":"QC","country":"CANADA","postalCode":"H2A 3C1","lat":45.555738,"lng":-73.597558},"e3a6cc87f932e4e778f89bbb6fc86fe8":{"id":"e3a6cc87f932e4e778f89bbb6fc86fe8","name":"Centre communautaire de Loisir St-Michel 03","description":"\r\n\r\n\r\n","openingDate":"2008-11-21","webSiteUrl":"","globalStatus":"up","massTransitInfo":"","contactPhoneNumber":"(514) 872-3498","civicNumber":"7110","streetAddress":"8 i\u00e8me avenue","city":"Montreal","province":"QC","country":"CANADA","postalCode":"H2A 3C4","lat":45.555738,"lng":-73.597558},"160578f96d44f46add234603861e45b1":{"id":"160578f96d44f46add234603861e45b1","name":"Centre communautaire de Loisir St-Michel 04","description":"\r\n\r\n","openingDate":"2008-11-21","webSiteUrl":"","globalStatus":"up","massTransitInfo":"","contactPhoneNumber":"(514) 872-3498","civicNumber":"7110","streetAddress":"8 i\u00e8me avenue","city":"Montreal","province":"QC","country":"CANADA","postalCode":"H2A 3C4","lat":45.555738,"lng":-73.597558},"4e5f18f9362ff6bc0ed7f90bcf544682":{"id":"4e5f18f9362ff6bc0ed7f90bcf544682","name":"Centre communautaire du Plateau","description":"Centre Communautaire du plateau.  Couvre rez de chauss\u00e9e et 1er \u00e9tage\r\n\r\n\r\n\r\n","openingDate":"2009-04-30","webSiteUrl":"","globalStatus":"up","massTransitInfo":"M\u00e9tro Laurier + autobus 27","contactPhoneNumber":"(514) 872-6830","civicNumber":"2275","streetAddress":"St Joseph est","city":"Montr\u00e9al","province":"Qu\u00e9bec","country":"Canada","postalCode":"H2H 1G4","lat":45.539379,"lng":-73.575577},"35d5452e7c30c54056dd9163660a8c9a":{"id":"35d5452e7c30c54056dd9163660a8c9a","name":"Centre de Gyn\u00e9cologie et de Maternit\u00e9 de Lasalle","description":"Centre de Gyn\u00e9cologie et de Maternit\u00e9 de Lasalle\r\n&\r\nGyn-\u00c9cho, Inc\r\n\r\n\r\n\r\n\r\n\r\n\r\n","openingDate":"2007-06-05","webSiteUrl":"","globalStatus":"up","massTransitInfo":"","contactPhoneNumber":"(514) 364-3700","civicNumber":"1811","streetAddress":"Avenue Dollard","city":"Lasalle","province":"Qu\u00e9bec","country":"CANADA","postalCode":"H8N 1T9","lat":45.429358,"lng":-73.632304},"e30c2fe294a60116a3e5fc7347131924":{"id":"e30c2fe294a60116a3e5fc7347131924","name":"Centre de services communautaires du Monastere-1","description":"Bureau administratif - Entree principale\r\n\r\n\r\n\r\n\r\n\r\n\r\n\r\n\r\n\r\n\r\n\r\n\r\n","openingDate":"2009-11-03","webSiteUrl":"http:\/\/www.cscmonastere.org","globalStatus":"up","massTransitInfo":"Metro Mont-Royal","contactPhoneNumber":"(514) 521-9191","civicNumber":"4450","streetAddress":"rue St-Hubert","city":"Montreal","province":"QC","country":"CANADA","postalCode":"H2J 2W9","lat":45.524856,"lng":-73.580375},"38f400f22ad83d3e1a8fecd40968dacc":{"id":"38f400f22ad83d3e1a8fecd40968dacc","name":"Centre de services communautaires du Monastere-2","description":"Cafeteria - Sous-sol\r\n\r\n\r\n\r\n\r\n\r\n\r\n\r\n","openingDate":"2009-11-04","webSiteUrl":"http:\/\/www.cscmonastere.org","globalStatus":"down","massTransitInfo":"Metro Mont-Royal","contactPhoneNumber":"(514) 521-9191","civicNumber":"4450","streetAddress":"rue St-Hubert","city":"Montreal","province":"QC","country":"CANADA","postalCode":"H2J 2W9","lat":45.525066,"lng":-73.580568},"ad8dfd021d345e5c21d86f87357a2a3c":{"id":"ad8dfd021d345e5c21d86f87357a2a3c","name":"Centre \u00c9tienne-Desmarteaux_Gymnase","description":"Le centre \u00c9tienne Desmarteaux offre maintenant \u00e0 sa client\u00e8le une connexion \u00e0 internet sans fil et gratuite.\r\n\r\n\r\n\r\n\r\n\r\n\r\n\r\n\r\n\r\n\r\n\r\n\r\n\r\n","openingDate":"2009-03-09","webSiteUrl":"","globalStatus":"up","massTransitInfo":"M\u00e9tro Rosemont descendre \u00e0 la 15e avenue, marcher vers le nord.","contactPhoneNumber":"(514) 872-6596 ","civicNumber":"3430","streetAddress":"Rue de Bellechasse","city":"Montr\u00e9al","province":"Qu\u00e9bec","country":"CANADA","postalCode":"H1X 3C8","lat":45.555876,"lng":-73.580396},"41fa801d8a17b97d267c0a08ecdf8833":{"id":"41fa801d8a17b97d267c0a08ecdf8833","name":"Centre P\u00e8re-Marquette - Entr\u00e9e","description":"\r\n\r\n\r\n\r\n","openingDate":"2009-10-15","webSiteUrl":"","globalStatus":"up","massTransitInfo":"Metro Beaubien, Autobus 18 vers l'est, ou par l'autobus 45 sur Papineau","contactPhoneNumber":"(514) 872-8705","civicNumber":"1600","streetAddress":"rue de Drucourt","city":"Montreal","province":"QC","country":"CANADA","postalCode":"H2G 1N6","lat":45.541202,"lng":-73.595631},"9913326c93fe1499cf62c1c25842ca13":{"id":"9913326c93fe1499cf62c1c25842ca13","name":"Centre QPNL","description":"\r\n\r\n\r\n\r\n\r\n\r\n\r\n","openingDate":"2009-11-04","webSiteUrl":"http:\/\/www.centrepnl.com","globalStatus":"up","massTransitInfo":"","contactPhoneNumber":"(514) 281-7553","civicNumber":"4848","streetAddress":"Ave. Papineau","city":"Montreal","province":"QC","country":"CANADA","postalCode":"H2H 1V6","lat":45.535566,"lng":-73.580042},"ea217b4fdf85016e3e021b50b5635366":{"id":"ea217b4fdf85016e3e021b50b5635366","name":"Centre St-Pierre - Bureau","description":"Point d'acc\u00e8s desservant le c\u00f4t\u00e9 nord (troisi\u00e8me et quatri\u00e8me \u00e9tages) du centre St-Pierre.\r\n\r\n","openingDate":"2005-09-07","webSiteUrl":"http:\/\/www.centrestpierre.org\/","globalStatus":"up","massTransitInfo":"M\u00e9tro Beaudry","contactPhoneNumber":"","civicNumber":"1212","streetAddress":"rue Panet","city":"Montr\u00e9al","province":"Qu\u00e9bec","country":"Canada","postalCode":"","lat":0,"lng":0},"0864f0e42e8dedbb6cb05dbc99e31601":{"id":"0864f0e42e8dedbb6cb05dbc99e31601","name":"Centre St-Pierre - Cuisine 3e","description":"Centre St-Pierre 3i\u00e8me \u00e9tage\r\n\r\n\r\n\r\n\r\n\r\n\r\n\r\n\r\n\r\n\r\n","openingDate":"2005-10-12","webSiteUrl":"http:\/\/www.centrestpierre.org\/","globalStatus":"up","massTransitInfo":"","contactPhoneNumber":"","civicNumber":"","streetAddress":"","city":"","province":"","country":"","postalCode":"","lat":0,"lng":0},"62c244baa8072ea2926166117fb32710":{"id":"62c244baa8072ea2926166117fb32710","name":"Centre St-Pierre - Hall et Caf\u00e9","description":"Centre Communautaire\r\n\r\n\r\n\r\n\r\n\r\n\r\n\r\n\r\n\r\n\r\n\r\n\r\n\r\n","openingDate":"2008-03-07","webSiteUrl":"http:\/\/www.centrestpierre.org\/","globalStatus":"up","massTransitInfo":"M\u00e9tro Beaudry","contactPhoneNumber":"514-524-3561","civicNumber":"1212","streetAddress":"Panet","city":"Montr\u00e9al","province":"Qu\u00e9bec","country":"Canada","postalCode":"H2L 2Y7","lat":45.519045,"lng":-73.553096},"d906e1f84151a6985f04cbe9b6426212":{"id":"d906e1f84151a6985f04cbe9b6426212","name":"Centre St-Pierre - Salle 100","description":"Centre St-Pierre, Salle 100\r\n\r\n","openingDate":"2005-09-19","webSiteUrl":"http:\/\/www.centrestpierre.org\/","globalStatus":"up","massTransitInfo":"","contactPhoneNumber":"","civicNumber":"","streetAddress":"","city":"","province":"","country":"","postalCode":"","lat":0,"lng":0},"c4aae228d8d8ccacae7e219bfa5c899e":{"id":"c4aae228d8d8ccacae7e219bfa5c899e","name":"Centre St-Pierre - Salle 105 -106","description":"\r\n\r\n\r\n\r\n\r\n\r\n\r\n\r\n\r\n","openingDate":"2007-10-17","webSiteUrl":"http:\/\/www.centrestpierre.org\/","globalStatus":"up","massTransitInfo":"","contactPhoneNumber":"","civicNumber":"1212","streetAddress":"Panet","city":"Montreal","province":"Qu\u00e9bec","country":"Canada","postalCode":"","lat":0,"lng":0},"608d2dcaa2d0f74d8e3f3f747e7748cf":{"id":"608d2dcaa2d0f74d8e3f3f747e7748cf","name":"Centre St-Pierre - Salle 1205","description":"1205 rue De La Visitation\r\nNon-Wifidog node...wds on S105\r\n\r\n\r\n\r\n\r\n\r\n","openingDate":"2005-10-22","webSiteUrl":"","globalStatus":"down","massTransitInfo":"","contactPhoneNumber":"","civicNumber":"1205 ","streetAddress":"rue De La Visitation","city":"","province":"","country":"","postalCode":"","lat":0,"lng":0},"d209ece0cbc5c63bdd9545cf478371ee":{"id":"d209ece0cbc5c63bdd9545cf478371ee","name":"Chez Alexandre","description":"\r\n\r\n\r\n\r\n","openingDate":"2009-09-22","webSiteUrl":"","globalStatus":"up","massTransitInfo":"","contactPhoneNumber":"(514) 288-5105","civicNumber":"1434","streetAddress":"rue Peel","city":"Montreal","province":"QC","country":"CANADA","postalCode":"H3A 1S8","lat":45.500557,"lng":-73.574131},"1068c35522291fa018076ba84a8ab730":{"id":"1068c35522291fa018076ba84a8ab730","name":"Chez Cook's","description":"\r\n\r\n\r\n\r\n\r\n\r\n\r\n\r\n\r\n\r\n\r\n\r\n\r\n\r\n\r\n\r\n\r\n\r\n\r\n\r\n\r\n\r\n\r\n\r\n","openingDate":"2009-11-09","webSiteUrl":"","globalStatus":"down","massTransitInfo":"M\u00e9tro C\u00f4te des Neiges, Autobus 65","contactPhoneNumber":"(514) 510-5710","civicNumber":"5159","streetAddress":"Cote-des-Neiges","city":"Montr\u00e9al","province":"Qu\u00e9bec","country":"Canada","postalCode":"H3T 1X9","lat":45.495391,"lng":-73.619835},"7c8dd8339deef29dee2a386d425ddde6":{"id":"7c8dd8339deef29dee2a386d425ddde6","name":"Chez Dusty's","description":"A traditional diner - good food, good music, nice people - since 1949.\r\n","openingDate":"2006-10-19","webSiteUrl":"","globalStatus":"up","massTransitInfo":"Autobus 80 du Parc, ou 97 Mont Royal","contactPhoneNumber":"(514) 276-8525","civicNumber":"4510","streetAddress":"Avenue du Parc","city":"Montr\u00e9al","province":"Qu\u00e9bec","country":"Canada","postalCode":"H2V 4E3","lat":45.51706,"lng":-73.58951},"4e4139bdc5fcbdc8210f550bc05b0af3":{"id":"4e4139bdc5fcbdc8210f550bc05b0af3","name":"Chez Gautier","description":"Situ\u00e9e en plein c\u0153ur de Montr\u00e9al, \u00e0 deux pas de la Place des Arts\u2026 Chez Gautier, une brasserie typiquement parisienne avec son bar et sa coupole.\r\n\r\n","openingDate":"2006-08-22","webSiteUrl":"http:\/\/www.lapatisseriebelge.com\/","globalStatus":"down","massTransitInfo":"M\u00e9tro Place des Arts, autobus 80","contactPhoneNumber":"(514) 845-1245","civicNumber":"3487","streetAddress":"Avenue du Parc","city":"Montr\u00e9al","province":"Qu\u00e9bec","country":"Canada","postalCode":"H2X 2H6","lat":45.50947,"lng":-73.57352},"79f53055fc00ad1816f7b4efcfb0f294":{"id":"79f53055fc00ad1816f7b4efcfb0f294","name":"Chez le Portugais","description":"\r\n\r\n\r\n\r\n\r\n","openingDate":"2009-11-09","webSiteUrl":"http:\/\/www.chezleportugais.com","globalStatus":"up","massTransitInfo":"Coin Rachel","contactPhoneNumber":"(514) 849-0550","civicNumber":"4134","streetAddress":"boul. St-Laurent","city":"Montreal","province":"QC","country":"CANADA","postalCode":"H2W 1Y8","lat":45.517594,"lng":-73.58119},"ce577dfe242abff124244f28e3f9f005":{"id":"ce577dfe242abff124244f28e3f9f005","name":"Cin\u00e9ma Beaubien","description":"Cin\u00e9ma R\u00e9pertoire\r\n\r\n\r\n\r\n","openingDate":"2006-04-22","webSiteUrl":"http:\/\/www.cinemabeaubien.com","globalStatus":"up","massTransitInfo":"M\u00e9tro Fabre+Bus 45 Sud ou M\u00e9tro Beaubien+Bus 18 Est","contactPhoneNumber":"514-721-6060","civicNumber":"2396","streetAddress":"Beaubien E.","city":"Montr\u00e9al","province":"Qu\u00e9bec","country":"Canada","postalCode":"H2G 1N2","lat":45.548115,"lng":-73.59208},"13ea0fdec79420bd0f9c83adc8aa4799":{"id":"13ea0fdec79420bd0f9c83adc8aa4799","name":"Cin\u00e9math\u00e8que Qu\u00e9b\u00e9coise","description":"\r\n\r\n\r\n\r\n\r\n\r\n\r\n","openingDate":"2005-11-17","webSiteUrl":"http:\/\/www.cinematheque.qc.ca","globalStatus":"up","massTransitInfo":"","contactPhoneNumber":"(514) 842-9763","civicNumber":"335","streetAddress":"Boul. de Maisonneuve Est","city":"Montr\u00e9al","province":"Qu\u00e9bec","country":"Canada","postalCode":"H2X 1K1","lat":45.513988,"lng":-73.562438},"11f6b035a9459bc20276744e7a877e38":{"id":"11f6b035a9459bc20276744e7a877e38","name":"Cin\u00e9math\u00e8que Qu\u00e9b\u00e9coise - M\u00e9diath\u00e8que","description":"Cin\u00e9math\u00e8que Qu\u00e9b\u00e9coise, salle m\u00e9diath\u00e8que\r\n\r\n\r\n\r\n","openingDate":"2009-11-15","webSiteUrl":"","globalStatus":"up","massTransitInfo":"M\u00e9tro Berri UQAM","contactPhoneNumber":"514-842-9763","civicNumber":"335","streetAddress":"boul. De Maisonneuve Est","city":"Montr\u00e9al","province":"Qu\u00e9bec","country":"Canada","postalCode":"H2X 1K1","lat":45.513847,"lng":-73.562736},"063367be6882241dd1f7145c500c7c3c":{"id":"063367be6882241dd1f7145c500c7c3c","name":"Cluny ArtBar","description":"Couvre \u00e9galement une bonne partie de la gallerie d'art \u00e0 c\u00f4t\u00e9.\r\n\r\nLundi, mardi, mercredi et vendredi 8h \u00e0 17h\r\njeudi 8h \u00e0 20h\r\n\r\n\r\n\r\n\r\n\r\n\r\n\r\n\r\n\r\n\r\n\r\n\r\n\r\n\r\n\r\n\r\n\r\n","openingDate":"2004-11-25","webSiteUrl":"http:\/\/www.cluny.info\/","globalStatus":"up","massTransitInfo":"M\u00e9tro Square-Victoria","contactPhoneNumber":"514-866-1213","civicNumber":"257","streetAddress":"Prince","city":"Montr\u00e9al","province":"Qu\u00e9bec","country":"Canada","postalCode":"H4C1R8","lat":45.497602,"lng":-73.556814},"188b10c0d81f4e9d0bd7a0b8928dca5f":{"id":"188b10c0d81f4e9d0bd7a0b8928dca5f","name":"Coalition des Ami(e)s du Parc Jarry","description":"La Coalition des Ami(e)s du parc Jarry regroupe des r\u00e9sidents, commer\u00e7ants et organismes du quartier qui, dans la foul\u00e9e de la lutte contre l'expansion de Tennis Canada, veulent donner \u00e0 ce territoire de 35,6 hectares une orientation et des outils pour r\u00e9pondre prioritairement aux besoins des usagers du quartier.\r\n\r\n\r\n\r\n\r\n\r\n\r\n\r\n","openingDate":"2006-05-11","webSiteUrl":"http:\/\/www.parcjarry.org","globalStatus":"up","massTransitInfo":"M\u00e9tro Jarry","contactPhoneNumber":"","civicNumber":"","streetAddress":"Coin Jarry Ouest \/ St-Laurent","city":"Montr\u00e9al","province":"Qu\u00e9bec","country":"Canada","postalCode":"","lat":45.53712,"lng":-73.632372},"e660e518d876f59b44eb40fc6054a547":{"id":"e660e518d876f59b44eb40fc6054a547","name":"Coll\u00e8ge Lasalle - 3e \u00e9tage","description":"Salle d'\u00e9tude et de d\u00e9tente des \u00e9l\u00e8ves\r\n\r\n\r\n\r\n\r\n\r\n\r\n\r\n\r\n\r\n\r\n\r\n\r\n","openingDate":"2006-08-20","webSiteUrl":"http:\/\/www.clasalle.qc.ca","globalStatus":"up","massTransitInfo":"Metro Guy","contactPhoneNumber":"(514) 939-2006 #4472","civicNumber":"2000","streetAddress":"rue Ste-Catherine Ouest","city":"Montreal","province":"Qu\u00e9bec","country":"Canada","postalCode":"H3H 2T2","lat":45.491397,"lng":-73.581748},"8e227cfe273bfd2dba0b6745010d503e":{"id":"8e227cfe273bfd2dba0b6745010d503e","name":"Coll\u00e8ge Lasalle - Caf\u00e9t\u00e9ria","description":"Le point d'acc\u00e8s est situ\u00e9 dans la caf\u00e9t\u00e9ria \u00e9tudiante du 2\u00e8me \u00e9tage. Bienvenue aux visiteurs.\r\n\r\n\r\n\r\n","openingDate":"2005-07-05","webSiteUrl":"http:\/\/www.clasalle.qc.ca\/","globalStatus":"up","massTransitInfo":"M\u00e9tro Guy","contactPhoneNumber":"(514) 939-2006 #4472","civicNumber":"2000","streetAddress":"rue Ste-Catherine Ouest","city":"Montr\u00e9al","province":"Qu\u00e9bec","country":"Canada","postalCode":"H3H 2T2","lat":45.491435,"lng":-73.581823},"0f59a84cea8f14b57abaea40c2747452":{"id":"0f59a84cea8f14b57abaea40c2747452","name":"Complexe Sportif St-Raphael","description":"La sant\u00e9... pour le plaisir ou l'excelllence\r\n\r\n\r\n\r\n\r\n\r\n\r\n\r\n\r\n\r\n\r\n\r\n\r\n\r\n\r\n\r\n\r\n\r\n\r\n\r\n\r\n\r\n\r\n\r\n\r\n\r\n","openingDate":"2007-02-01","webSiteUrl":"http:\/\/www.cssr.ca","globalStatus":"up","massTransitInfo":"Autobus 207","contactPhoneNumber":"(514) 620-8004","civicNumber":"750","streetAddress":"Boul. Jacques-Bizard","city":"\u00cele Bizard","province":"Qu\u00e9bec","country":"Canada","postalCode":"H9C 2Y2","lat":45.5012,"lng":-73.87738},"e41ed37980f74a41aed6ddff0aa64939":{"id":"e41ed37980f74a41aed6ddff0aa64939","name":"Coop Informatique de l'UQAM","description":"\r\n\r\n\r\n\r\n\r\n\r\n\r\n\r\n\r\n\r\n\r\n\r\n\r\n\r\n\r\n\r\n\r\n\r\n\r\n\r\n\r\n\r\n\r\n\r\n\r\n","openingDate":"2006-09-15","webSiteUrl":"http:\/\/www.coopuqam.com","globalStatus":"up","massTransitInfo":"Metro Berri-UQAM","contactPhoneNumber":"514-987-3000 ext. 2655","civicNumber":"280","streetAddress":"rue Sainte-Catherine, est","city":"Montr\u00e9al","province":"Qu\u00e9bec","country":"canada","postalCode":"H2X1L4","lat":45.51255,"lng":-73.561325},"82b924691a8a0aa4100c98063dcf5803":{"id":"82b924691a8a0aa4100c98063dcf5803","name":"Coop La Maison Verte","description":"\r\n\r\n\r\n","openingDate":"2005-03-06","webSiteUrl":"http:\/\/www.cooplamaisonverte.com\/","globalStatus":"up","massTransitInfo":" M\u00e9tro Vend\u00f4me + Bus 105","contactPhoneNumber":"(514) 489-8000","civicNumber":"5785","streetAddress":"rue Sherbrooke Ouest","city":"Montr\u00e9al","province":"Qu\u00e9bec","country":"CANADA","postalCode":"H4A 1X2","lat":45.470067,"lng":-73.616917},"8bc3eaa87a19a8218f99166f2148f5d5":{"id":"8bc3eaa87a19a8218f99166f2148f5d5","name":"Cummings Centre","description":"\r\n\r\n\r\n\r\n\r\n","openingDate":"2010-01-29","webSiteUrl":"http:\/\/www.cummingscentre.org","globalStatus":"up","massTransitInfo":"Metro Cote-Ste-Catherine, marcher vers l'ouest","contactPhoneNumber":"(514) 342-1234","civicNumber":"5700","streetAddress":"rue Westbury","city":"Montreal","province":"QC","country":"CANADA","postalCode":"H3W 3E8","lat":45.489456,"lng":-73.636883},"6f494e8fe03696672e8c85602de8f399":{"id":"6f494e8fe03696672e8c85602de8f399","name":"Daylight Factory","description":"\r\n\r\n\r\n\r\n\r\n","openingDate":"2005-09-17","webSiteUrl":"","globalStatus":"up","massTransitInfo":"M\u00e9tro Square-Victoria","contactPhoneNumber":"(514) 871-4774","civicNumber":"1030","streetAddress":"rue St-Alexandre","city":"Montr\u00e9al","province":"Qu\u00e9bec","country":"Canada","postalCode":"H2Z 1P3","lat":45.502989,"lng":-73.563013},"9900e7a437ba3a9abfac9040e59d99f9":{"id":"9900e7a437ba3a9abfac9040e59d99f9","name":"ECTO","description":"Espace cooperative de travail.\r\n\r\n\r\n\r\n\r\n\r\n\r\n\r\n\r\n\r\n\r\n\r\n\r\n\r\n\r\n\r\n\r\n\r\n\r\n\r\n\r\n","openingDate":"2009-06-05","webSiteUrl":"http:\/\/www.ecto.coop","globalStatus":"up","massTransitInfo":"Metro Sherbrooke","contactPhoneNumber":"(514) 564-8636","civicNumber":"880","streetAddress":"Rue Roy Est, 3ieme Etage","city":"Montreal","province":"QC","country":"CANADA","postalCode":"H2L 1E6","lat":45.521406,"lng":-73.570193},"a46b6ab3741be71a3fd7ccfe9a7c3f2a":{"id":"a46b6ab3741be71a3fd7ccfe9a7c3f2a","name":"Else's","description":"Famous Else's on Roy.  Good food, drink and music with ambience of Norwegian origins.\r\n\r\n\r\n\r\n\r\n\r\n\r\n\r\n\r\n","openingDate":"2006-08-09","webSiteUrl":"","globalStatus":"up","massTransitInfo":"Metro Sherbrooke or Bus 55 St Laurent","contactPhoneNumber":"(514) 286-6689","civicNumber":"156","streetAddress":"rue Roy E.","city":"Montreal","province":"QC","country":"CANADA","postalCode":"H2W 1M2","lat":45.5169,"lng":-73.5748},"b1dafd98b65314a6833464d050f590d9":{"id":"b1dafd98b65314a6833464d050f590d9","name":"El Zaziumm Du Parc","description":"Restaurant menu mexicain\r\n\r\n\r\n\r\n\r\n","openingDate":"2007-05-07","webSiteUrl":"","globalStatus":"up","massTransitInfo":"","contactPhoneNumber":"(514) 499-3675","civicNumber":"4581","streetAddress":"Avenue Du Parc","city":"Montr\u00e9al","province":"QC","country":"Canada","postalCode":"H2V 4E4","lat":45.51746,"lng":-73.5906},"62e0a58e9ec6aaa8422dcb4442194ae0":{"id":"62e0a58e9ec6aaa8422dcb4442194ae0","name":"Esco Bar","description":"\r\n\r\n\r\n\r\n\r\n\r\n\r\n\r\n","openingDate":"2010-01-27","webSiteUrl":"http:\/\/www.myspace.com\/lescobar","globalStatus":"up","massTransitInfo":"M\u00e9tro Mont-Royal","contactPhoneNumber":"514 842-7244","civicNumber":"4467 A","streetAddress":"St-Denis","city":"Montr\u00e9al","province":"Qu\u00e9bec","country":"Canada","postalCode":" H2J 2L2","lat":45.52368,"lng":-73.582108},"8b6ab88c932b0faa768d397af2ffef75":{"id":"8b6ab88c932b0faa768d397af2ffef75","name":"Eye Steel Film - A (Antenne St-Laurent)","description":"2ieme etage\r\n\r\n\r\n\r\n\r\n","openingDate":"2005-03-26","webSiteUrl":"http:\/\/www.eyesteelfilm.com\/","globalStatus":"up","massTransitInfo":"M\u00e9tro Mont-Royal","contactPhoneNumber":"(514) 937-4893","civicNumber":"4475","streetAddress":"boul. St-Laurent","city":"Montr\u00e9al","province":"QC","country":"CANADA","postalCode":"H2W 1Z8","lat":45.52009,"lng":-73.586061},"b53318fe15a8a8be93eb25d54760121f":{"id":"b53318fe15a8a8be93eb25d54760121f","name":"Eye Steel Film - B (Antenne Mont-Royal)","description":"2nd Floor\r\n\r\n\r\n\r\n","openingDate":"2005-03-26","webSiteUrl":"http:\/\/www.eyesteelfilm.com\/","globalStatus":"down","massTransitInfo":"M\u00e9tro Mont-Royal","contactPhoneNumber":"(514) 937-4893","civicNumber":"4475","streetAddress":"boul. St-Laurent","city":"Montr\u00e9al","province":"QC","country":"CANADA","postalCode":"H2W 1Z8","lat":45.520135,"lng":-73.58619},"262dac0d52d3ed9cb151c207fd6fda8d":{"id":"262dac0d52d3ed9cb151c207fd6fda8d","name":"Foufounes \u00e9lectriques","description":"Bar, discoth\u00e8que, concerts\r\n\r\n\r\n\r\n\r\n","openingDate":"2005-09-17","webSiteUrl":"http:\/\/www.foufounes.qc.ca\/","globalStatus":"up","massTransitInfo":"M\u00e9tro St-Laurent et Berri-UQAM","contactPhoneNumber":"(514) 844-5539","civicNumber":"87","streetAddress":"Ste-Catherine E.","city":"Montr\u00e9al","province":"QC","country":"CANADA","postalCode":"H2X1K5","lat":45.511042,"lng":-73.562952},"7def7f145f61fb03e231dffe401b92d4":{"id":"7def7f145f61fb03e231dffe401b92d4","name":"Furisme Coiffure","description":"La beaut\u00e9 modernis\u00e9e. Coupes, colorations, maquillage, massage. Hommes, femmes, escomptes \u00e9tudiant\r\n\r\n\r\n\r\n\r\n\r\n\r\n\r\n\r\n\r\n\r\n\r\n\r\n","openingDate":"2007-05-10","webSiteUrl":"http:\/\/www.furisme.com","globalStatus":"up","massTransitInfo":"M\u00e9tro Mont-Royal, autobus 97 et 55","contactPhoneNumber":"(514) 270-8666","civicNumber":"4528","streetAddress":"boul. St-Laurent","city":"Montr\u00e9al","province":"QC","country":"CANADA","postalCode":"H2T 1R3","lat":45.520126,"lng":-73.586388},"cc3954cfac1522149a24fd38e6094c0f":{"id":"cc3954cfac1522149a24fd38e6094c0f","name":"Gite du Plateau Mont-Royal","description":"Situ\u00e9e sur le Plateau Mont-Royal, notre auberge de jeunesse peut accueillir jusqu'a 80 personnes. Nous avons des chambres et des dortoirs. Dans nos prix tout est inclus: literie, petit d\u00e9jeuner, Wifi.\r\n\r\n\r\n\r\n\r\n\r\n\r\n","openingDate":"2007-07-24","webSiteUrl":"http:\/\/www.hostelmontreal.com","globalStatus":"up","massTransitInfo":"Metro Sherbrooke","contactPhoneNumber":"(514) 284-1276","civicNumber":"185","streetAddress":"rue Sherbrooke Est","city":"Montr\u00e9al","province":"QC","country":"Canada","postalCode":"H2X 1C7","lat":45.514542,"lng":-73.568471},"2a500a0112f7ad16463ce9793c9120b5":{"id":"2a500a0112f7ad16463ce9793c9120b5","name":"Gite du Plateau Mont-Royal (\u00c9tage)","description":"Situ\u00e9e sur le Plateau Mont-Royal, notre auberge de jeunesse peut accueillir jusqu'a 80 personnes. Nous avons des chambres et des dortoirs. Dans nos prix tout est inclus: literie, petit d\u00e9jeuner, Wifi.\r\n\r\n\r\n\r\n\r\n","openingDate":"2007-07-24","webSiteUrl":"http:\/\/www.hostelmontreal.com","globalStatus":"up","massTransitInfo":"Metro Sherbrooke","contactPhoneNumber":"(514) 284-1276","civicNumber":"185","streetAddress":"rue Sherbrooke Est","city":"Montreal","province":"QC","country":"CANADA","postalCode":"H2X 1C7","lat":45.514723,"lng":-73.568554},"4069d5d3811bcbf1fa472871a3d17a50":{"id":"4069d5d3811bcbf1fa472871a3d17a50","name":"Grillades Da Silva","description":"\r\n\r\n\r\n\r\n\r\n\r\n\r\n\r\n","openingDate":"2010-02-17","webSiteUrl":"","globalStatus":"up","massTransitInfo":"Metro Jean-Talon.","contactPhoneNumber":"(514) 303-0451","civicNumber":"355","streetAddress":"rue Jean-Talon Est","city":"Montreal","province":"QC","country":"CANADA","postalCode":"H2R 1T4","lat":45.537821,"lng":-73.614997},"aea7d4e7bb48db12e8729160a6e8fa00":{"id":"aea7d4e7bb48db12e8729160a6e8fa00","name":"HELM Brasseur Gourmand","description":"\r\n\r\n\r\n\r\n\r\n\r\n\r\n\r\n\r\n\r\n\r\n\r\n\r\n\r\n\r\n\r\n\r\n\r\n\r\n\r\n\r\n","openingDate":"2006-02-10","webSiteUrl":"","globalStatus":"up","massTransitInfo":"","contactPhoneNumber":"(514) 276-0473","civicNumber":"273","streetAddress":"rue Bernard Ouest","city":"Montr\u00e9al","province":"QC","country":"CANADA","postalCode":"H2V 1T5","lat":45.524092,"lng":-73.605303},"af16c3955669bbd5fd6b0b62cdf35066":{"id":"af16c3955669bbd5fd6b0b62cdf35066","name":"Juliette & Chocolat Laurier","description":"...le chocolat dans tous ses \u00e9tats\r\n\r\n\r\n\r\n\r\n\r\n\r\n","openingDate":"2007-12-05","webSiteUrl":"","globalStatus":"down","massTransitInfo":"","contactPhoneNumber":"(514) 510-5651","civicNumber":"377","streetAddress":"rue Laurier Ouest","city":"Montr\u00e9al","province":"QC","country":"CANADA","postalCode":"H2V 2K3","lat":45.519064,"lng":-73.596677},"076cfd6c2ba45dbaaa0c2fcb9fec3bba":{"id":"076cfd6c2ba45dbaaa0c2fcb9fec3bba","name":"Juliette & Chocolat St-Denis","description":"...le chocolat dans tous ses \u00e9tats\r\n\r\n\r\n\r\n\r\n","openingDate":"2005-02-07","webSiteUrl":"","globalStatus":"up","massTransitInfo":"Metro Berri-UQAM sortie St-Denis","contactPhoneNumber":"(514) 287-3555","civicNumber":"1615","streetAddress":"rue St-Denis","city":"Montr\u00e9al","province":"QC","country":"CANADA","postalCode":"H2X 3K3","lat":45.514828,"lng":-73.562554},"90a338ae48e0a168a388ce086a233af4":{"id":"90a338ae48e0a168a388ce086a233af4","name":"Kafe\u00efn","description":"Lounge au sous-col et caf\u00e9-bar \u00e0 l'\u00e9tage\r\n\r\n\r\n\r\n","openingDate":"2005-01-28","webSiteUrl":"","globalStatus":"up","massTransitInfo":"M\u00e9tro Guy-Concordia","contactPhoneNumber":"(514) 904-6969","civicNumber":"1429","streetAddress":"rue Bishop","city":"Montr\u00e9al","province":"QC","country":"CANADA","postalCode":"H3G 2E4","lat":45.496969,"lng":-73.576861},"22d68de33d87f818937fe0c7af7c07d4":{"id":"22d68de33d87f818937fe0c7af7c07d4","name":"Katacombes - Coop de Travaille","description":"\r\n\r\n\r\n","openingDate":"2009-10-20","webSiteUrl":"","globalStatus":"up","massTransitInfo":"","contactPhoneNumber":"(514) 462-9317","civicNumber":"1635","streetAddress":"Boul. St-Laurent","city":"Montreal","province":"QC","country":"CANADA","postalCode":"H2X 2S9","lat":45.511242,"lng":-73.566577},"7910c985e2b0f548291bb5bb6b634e19":{"id":"7910c985e2b0f548291bb5bb6b634e19","name":"La Boite Gourmande","description":"\r\n\r\n\r\n","openingDate":"2009-09-14","webSiteUrl":"","globalStatus":"up","massTransitInfo":"Metro Laurier, Marcher vers Saint-Denis","contactPhoneNumber":"(514) 270-5222","civicNumber":"445","streetAddress":"rue Laurier Est","city":"Montreal","province":"QC","country":"CANADA","postalCode":"H2J 2E6","lat":45.527351,"lng":-73.589194},"7ccf6285a019f03f72178b8c709bd008":{"id":"7ccf6285a019f03f72178b8c709bd008","name":"L'Absynthe","description":"Resto-Bar-Spectacle\r\n\r\n\r\n\r\n\r\n\r\n\r\n\r\n\r\n\r\n\r\n\r\n","openingDate":"2007-08-09","webSiteUrl":"http:\/\/myspace.com\/labsynthe","globalStatus":"down","massTransitInfo":"M\u00e9tro Berri-UQAM","contactPhoneNumber":"(514) 285-1738","civicNumber":"1738","streetAddress":"rue St-Denis","city":"Montr\u00e9al","province":"QC","country":"CANADA","postalCode":"H2X 2K6","lat":45.515444,"lng":-73.564796},"752f43f834dcd7d062c5075ba6426b53":{"id":"752f43f834dcd7d062c5075ba6426b53","name":"L'Am\u00e8re \u00e0 Boire","description":"Brasserie artisanale et Restaurant\r\n\r\n\r\n\r\n","openingDate":"2009-03-13","webSiteUrl":"http:\/\/www.amereaboire.com","globalStatus":"up","massTransitInfo":"Metro Berri-UQAM et marchez vers le nord","contactPhoneNumber":"(514) 282-7448","civicNumber":"2049","streetAddress":"rue St-Denis","city":"Montr\u00e9al","province":"QC","country":"CANADA","postalCode":"H2X 3K8","lat":45.516632,"lng":-73.566234},"5c1692f0e5a4acf52c8244f92c8f2367":{"id":"5c1692f0e5a4acf52c8244f92c8f2367","name":"La Normande","description":"\r\n\r\n\r\n\r\n\r\n\r\n\r\n","openingDate":"2010-01-23","webSiteUrl":"","globalStatus":"down","massTransitInfo":"Rachel, 1 rue a l'est de St-Laurent","contactPhoneNumber":"(514) 849-3423","civicNumber":"77","streetAddress":"rue Rachel Est","city":"Montreal","province":"QC","country":"CANADA","postalCode":"H2W 2T6","lat":45.518575,"lng":-73.58133},"69a9532b509df8895cdf6331fa2ff0aa":{"id":"69a9532b509df8895cdf6331fa2ff0aa","name":"La Petite Ardoise","description":"Cuisine Fran\u00e7aise, Caf\u00e9:\r\nRestaurant La Petite Ardoise offre le petit-d\u00e9jeuner jusqu'\u00e0 midi et pour midi des sandwichs, quiches et salades. Les plats complete: pintade farcie \u00e0 la foresti\u00e8re, calmars \u00e0 la proven\u00e7ale, endives flamandes, escalope milanaise. Au fond de la salle, la porte-fen\u00eatre ouvre sur un magnifique jardin-terrasse.\r\n\r\n\r\n\r\n\r\n\r\n\r\n\r\n\r\n\r\n\r\n\r\n\r\n\r\n\r\n\r\n\r\n\r\n\r\n\r\n\r\n\r\n\r\n\r\n","openingDate":"2008-08-24","webSiteUrl":"http:\/\/www.lapetiteardoise.com","globalStatus":"up","massTransitInfo":"Autobus 80 du Parc","contactPhoneNumber":"(514) 495-4961","civicNumber":"222","streetAddress":"avenue Laurier Ouest","city":"Montr\u00e9al","province":"QC","country":"CANADA","postalCode":"H2T 2N8","lat":45.520691,"lng":-73.594896},"ebf84a6a90baebf5a3cbc54d62add907":{"id":"ebf84a6a90baebf5a3cbc54d62add907","name":"La Petite Cloche","description":"\r\n\r\n\r\n","openingDate":"2009-12-09","webSiteUrl":"http:\/\/www.lapetitecloche.com","globalStatus":"up","massTransitInfo":"Metro Place Victoria, Edifice 700 de la Gauchetiere O","contactPhoneNumber":"(514) 875-2040","civicNumber":"1001, Niveau A","streetAddress":"rue University","city":"Montreal","province":"QC","country":"CANADA","postalCode":"H3B 4L4","lat":45.500647,"lng":-73.564582},"5d9b9f30b37b4d993f5e8993d06607cc":{"id":"5d9b9f30b37b4d993f5e8993d06607cc","name":"Lapin Press\u00e9","description":"\r\nCaf\u00e9 \r\n\r\n\r\n\r\n\r\n\r\n\r\n\r\n\r\n\r\n","openingDate":"2009-05-23","webSiteUrl":"","globalStatus":"up","massTransitInfo":"M\u00e9tro Laurier","contactPhoneNumber":"(514) 903-3555","civicNumber":"1309","streetAddress":"rue Laurier Est","city":"Montr\u00e9al","province":"QC","country":"CANADA","postalCode":"H2J 1H4","lat":45.533196,"lng":-73.584173},"cc30baf5093131cfd4682d03372ff7fc":{"id":"cc30baf5093131cfd4682d03372ff7fc","name":"La Quincaillerie","description":"Lieu d'ambiance, de musique et d'alcool\r\n\r\n\r\n\r\n","openingDate":"2006-07-05","webSiteUrl":"","globalStatus":"up","massTransitInfo":"","contactPhoneNumber":"(514) 524-3000","civicNumber":"980","streetAddress":"rue Rachel Est","city":"Montr\u00e9al","province":"QC","country":"CANADA","postalCode":"H2J 2J3","lat":45.52529,"lng":-73.574868},"d28e81fff0ade0369c98783fc21cc482":{"id":"d28e81fff0ade0369c98783fc21cc482","name":"L'Autre Bar","description":"Brasserie de quartier. Meilleur 5 \u00e0 8 de la rue Laurier\r\n\r\n\r\n\r\n\r\n","openingDate":"2009-04-01","webSiteUrl":"http:\/\/www.lautrebar.com","globalStatus":"up","massTransitInfo":"Metro Laurier + Autobus 51","contactPhoneNumber":"(514) 278-1519","civicNumber":"278","streetAddress":"rue Laurier Ouest","city":"Montr\u00e9al","province":"QC","country":"CANADA","postalCode":"H2K 1J5","lat":45.519862,"lng":-73.595348},"2126e83b2f6a44968df94689aa2cbc5a":{"id":"2126e83b2f6a44968df94689aa2cbc5a","name":"Le Boui-Boui","description":"\r\n\r\n\r\n\r\n","openingDate":"2009-11-04","webSiteUrl":"","globalStatus":"up","massTransitInfo":"","contactPhoneNumber":"(514) 564-9997","civicNumber":"5121","streetAddress":"Boul. St-Laurent","city":"Montreal","province":"QC","country":"CANADA","postalCode":"H2T 1R9","lat":45.523232,"lng":-73.59311},"bc895bd03f6dae4c17839c4334a8698e":{"id":"bc895bd03f6dae4c17839c4334a8698e","name":"Le Comptoir","description":"\r\n\r\n\r\n\r\n\r\n\r\n\r\n\r\n\r\n","openingDate":"2009-04-30","webSiteUrl":"http:\/\/www.lecomptoirresto.com","globalStatus":"up","massTransitInfo":"","contactPhoneNumber":"(514) 521-5467\u200e","civicNumber":"1902","streetAddress":"Rue Masson","city":"Montreal","province":"QC","country":"CANADA","postalCode":"H2H 1A3","lat":45.538046,"lng":-73.58295},"60693931e4cb1ec7a745af67e7518f9f":{"id":"60693931e4cb1ec7a745af67e7518f9f","name":"Le Divan Orange","description":"\r\n\r\n\r\n","openingDate":"2009-11-10","webSiteUrl":"http:\/\/www.ledivanorange.org","globalStatus":"up","massTransitInfo":"","contactPhoneNumber":"(514) 840-9090","civicNumber":"4234","streetAddress":"boul. St-Laurent","city":"Montreal","province":"QC","country":"CANADA","postalCode":"H2W 1Z3","lat":45.518106,"lng":-73.582392},"750215034344511c0ecb934d9bc158f4":{"id":"750215034344511c0ecb934d9bc158f4","name":"Le Gite du Parc Lafontaine","description":"Auberge jeunesse situ\u00e9e en face du parc Lafontaine, nous offrons des dortoirs et des chambres priv\u00e9es. Venez nous visiter!\r\n\r\n\r\n\r\n\r\n\r\n\r\n\r\n\r\n\r\n\r\n\r\n\r\n\r\n","openingDate":"2007-07-19","webSiteUrl":"http:\/\/www.hostelmontreal.com","globalStatus":"up","massTransitInfo":"Metro Sherbrooke","contactPhoneNumber":"(514) 522-3910","civicNumber":"1250","streetAddress":"rue Sherbrooke Est","city":"Montr\u00e9al","province":"QC","country":"CANADA","postalCode":"H2L 1M1","lat":45.523601,"lng":-73.565315},"5d3dbf4dfe4d99a72b5b355a72542e81":{"id":"5d3dbf4dfe4d99a72b5b355a72542e81","name":"Le Petit Medley","description":"Bar, salle de danse.\r\n","openingDate":"2006-09-29","webSiteUrl":"http:\/\/www.lepetitmedley.ca\/","globalStatus":"up","massTransitInfo":"Metro Rosemont","contactPhoneNumber":"(514) 271-7887","civicNumber":"6206","streetAddress":"rue St-Hubert","city":"Montreal","province":"QC","country":"CANADA","postalCode":"H2S 2M2","lat":45.53473,"lng":-73.59998},"8b5d4274701fb42d236296d0f718f30d":{"id":"8b5d4274701fb42d236296d0f718f30d","name":"Le Placard","description":"Resto\/Caf\u00e9\/Frip\u00e9rie across from Verre Bouteille\r\n\r\n\r\n\r\n\r\n\r\n\r\n","openingDate":"2008-08-04","webSiteUrl":"","globalStatus":"up","massTransitInfo":"","contactPhoneNumber":"(514) 590-0733","civicNumber":"2129","streetAddress":"avenue Mont-Royal Est","city":"Montr\u00e9al","province":"QC","country":"CANADA","postalCode":"H2H 1J9","lat":45.535785,"lng":-73.571861},"7083d4dbbcbd201c8bee181f94ced414":{"id":"7083d4dbbcbd201c8bee181f94ced414","name":"Les 3 Brasseurs - Centre-Ville","description":"\r\n\r\n\r\n\r\n\r\n","openingDate":"2009-10-07","webSiteUrl":"http:\/\/www.les3brasseurs.ca","globalStatus":"up","massTransitInfo":"Metro McGill, en face du centre Eaton","contactPhoneNumber":"(514) 788-6333","civicNumber":"732","streetAddress":"rue Ste-Catherine Ouest","city":"Montreal","province":"QC","country":"CANADA","postalCode":"H3B 1B9","lat":45.502301,"lng":-73.570418},"6cbd058031d9bcf27969fc02a4840c58":{"id":"6cbd058031d9bcf27969fc02a4840c58","name":"Les 3 Brasseurs - Cresent","description":"\r\n\r\n\r\n\r\n\r\n\r\n\r\n","openingDate":"2009-10-07","webSiteUrl":"http:\/\/www.les3brasseurs.ca","globalStatus":"up","massTransitInfo":"Coin Cresent et Ste-Catherine Ouest","contactPhoneNumber":"(514) 788-9788","civicNumber":"1356","streetAddress":"rue Ste-Catherine Ouest","city":"Montreal","province":"QC","country":"CANADA","postalCode":"H3G 1P6","lat":45.497165,"lng":-73.575525},"152487ee753c40c459e3f4f7d7117cd9":{"id":"152487ee753c40c459e3f4f7d7117cd9","name":"Les 3 Brasseurs - St-Denis","description":"\r\n\r\n\r\n\r\n\r\n\r\n\r\n","openingDate":"2009-10-07","webSiteUrl":"http:\/\/www.les3brasseurs.ca","globalStatus":"down","massTransitInfo":"Metro Berri, nord de l'UQAM","contactPhoneNumber":"(514) 845-1660","civicNumber":"1658","streetAddress":"rue St-Denis","city":"Montreal","province":"QC","country":"CANADA","postalCode":"H2X 3K6","lat":45.515008,"lng":-73.563455},"effb205871522c7fe7ab6a9967decbba":{"id":"effb205871522c7fe7ab6a9967decbba","name":"Les 3 Brasseurs - St-Paul","description":"\r\n\r\n\r\n\r\n\r\n\r\n","openingDate":"2009-10-07","webSiteUrl":"http:\/\/www.les3brasseur.ca","globalStatus":"down","massTransitInfo":"Place Jacques-Cartier, marcher vers l'ouest","contactPhoneNumber":"(514) 788-6100","civicNumber":"105","streetAddress":"rue St-Paul Est","city":"Montreal","province":"QC","country":"CANADA","postalCode":"H2Y 1G7","lat":45.506689,"lng":-73.552893},"e7fe3a491a204cc998b734369a1caa12":{"id":"e7fe3a491a204cc998b734369a1caa12","name":"Le Scoop","description":"Bar Le Scoop\r\n\r\n\r\n\r\n\r\n\r\n\r\n\r\n\r\n\r\n\r\n\r\n\r\n\r\n\r\n\r\n\r\n\r\n","openingDate":"2008-03-31","webSiteUrl":"","globalStatus":"up","massTransitInfo":"","contactPhoneNumber":"(514) 843-9076","civicNumber":"200","streetAddress":"avenue Mont-Royal Est","city":"Montr\u00e9al","province":"QC","country":"CANADA","postalCode":"H2T 1P3","lat":45.522082,"lng":-73.584473},"3df477ddada56f966c8018e1e1d8ea64":{"id":"3df477ddada56f966c8018e1e1d8ea64","name":"Les Pas Sages","description":"\r\n\r\n\r\n\r\n","openingDate":"2006-02-03","webSiteUrl":"","globalStatus":"up","massTransitInfo":"","contactPhoneNumber":"(514) 522-9773","civicNumber":"951","streetAddress":"rue Rachel Est","city":"Montr\u00e9al","province":"QC","country":"CANADA","postalCode":"H2J 2J4","lat":45.525155,"lng":-73.575237},"0cce25bc7b0e68e55961c9a7d39a495c":{"id":"0cce25bc7b0e68e55961c9a7d39a495c","name":"Les Petites Mains","description":"Un organisme sans but lucratif qui oeuvre dans le domaine de la Couture Industrielle. Il s\u2019agit d\u2019une Entreprise d\u2019Insertion membre du Collectif des Entreprises d\u2019Insertion du Qu\u00e9bec. Il lutte contre l\u2019exclusion, la pauvret\u00e9, et la violence.\r\n\r\n\r\n\r\n\r\n\r\n\r\n\r\n\r\n\r\n","openingDate":"2009-05-29","webSiteUrl":"http:\/\/www.petitesmains.com","globalStatus":"up","massTransitInfo":"Metro de Castelleneau, marche vers le nord, cote est de  boul. St-Laurent","contactPhoneNumber":"(514) 738-8989","civicNumber":"7595","streetAddress":"boul. St-Laurent","city":"Montreal","province":"QC","country":"CANADA","postalCode":"H2R 1W9","lat":45.536667,"lng":-73.623317},"3d53e90553a29477f0f5fb9db6716eb5":{"id":"3d53e90553a29477f0f5fb9db6716eb5","name":"Mainline Theater","description":"Theatre\r\n\r\n\r\n\r\n\r\n\r\n","openingDate":"2006-04-19","webSiteUrl":"","globalStatus":"down","massTransitInfo":"Metro Sherbrooke","contactPhoneNumber":"514-849-3378","civicNumber":"3997","streetAddress":"St-Laurent","city":"Montr\u00e9al","province":"Qu\u00e9bec","country":"Canada","postalCode":"H2W 1Y4","lat":45.516782,"lng":-73.578604},"6fde6f7e3f15bedadc334f7bfd575cdd":{"id":"6fde6f7e3f15bedadc334f7bfd575cdd","name":"March\u00e9 Jean-Talon","description":"L'antenne peut \u00eatre capt\u00e9e dans la nouvelle section Est du march\u00e9.\r\n\r\n\r\n\r\n\r\n\r\n\r\n\r\n\r\n\r\n\r\n","openingDate":"2005-03-23","webSiteUrl":"http:\/\/www.marche-jean-talon.com","globalStatus":"up","massTransitInfo":"M\u00e9tro Jean-Talon","contactPhoneNumber":"(514) 937-7620","civicNumber":"7070","streetAddress":"rue Henri-Julien","city":"Montr\u00e9al","province":"QC","country":"CANADA","postalCode":"H2S 3S3","lat":45.53637,"lng":-73.614621},"bea35023d8462cd2ac7bd17ee6595424":{"id":"bea35023d8462cd2ac7bd17ee6595424","name":"Monster Gym","description":"You don't have to be training for a triathlon or bodybuilding competition to use a personal trainer. Our trainers always work with you to design programs that are right for your fitness level and goals. In other words, you train at your own pace. Our trainers also have a wide range of specialties, including strength training, yoga, kick-boxing, pre\/post-natal, marathon training and rehabilitation.\r\n\r\n\r\n\r\n\r\n\r\n\r\n\r\n\r\n\r\n","openingDate":"2009-03-11","webSiteUrl":"http:\/\/www.monstergym.net","globalStatus":"up","massTransitInfo":"Brunswick a l'ouest de Boul. des Sources","contactPhoneNumber":"(514)421-0014","civicNumber":"61-D","streetAddress":"boul. Brunswick","city":"Dollard-des-Ormeaux","province":"QC","country":"Canada","postalCode":"H9B 2N4","lat":45.482296,"lng":-73.798814},"07d8e81055e904f4dcf1f37b908d0f86":{"id":"07d8e81055e904f4dcf1f37b908d0f86","name":"Oboro","description":"Exposition, conf\u00e9rences, nouveaux m\u00e9dias, publications, r\u00e9sidences et salon de th\u00e9.\r\n\r\n\r\n\r\n\r\n","openingDate":"2007-09-21","webSiteUrl":"http:\/\/www.oboro.net","globalStatus":"up","massTransitInfo":"M\u00e9tro Sherbrooke","contactPhoneNumber":"(514) 844-3250","civicNumber":"4001, suite 301","streetAddress":"rue Berri","city":"Montr\u00e9al","province":"QC","country":"CANADA","postalCode":"H2L 4H2","lat":45.521564,"lng":-73.574501},"2ab2fad4be08ce8ba4cb2815e567a471":{"id":"2ab2fad4be08ce8ba4cb2815e567a471","name":"Oboro Lab","description":"\r\n\r\n\r\n\r\n\r\n\r\n","openingDate":"2009-10-06","webSiteUrl":"http:\/\/www.oboro.net","globalStatus":"up","massTransitInfo":"M\u00e9tro Sherbrooke","contactPhoneNumber":"(514) 844-3250","civicNumber":"4001, Suite 301","streetAddress":"rue Berri","city":"Montreal","province":"QC","country":"CANADA","postalCode":"H2L 4H2","lat":45.521515,"lng":-73.57404},"8f4de9d962699df5317514b7e6d76755":{"id":"8f4de9d962699df5317514b7e6d76755","name":"Ov\u00ebn Bar-Piztro","description":"\r\n\r\n\r\n\r\n\r\n\r\n\r\n\r\n\r\n\r\n\r\n\r\n\r\n\r\n\r\n\r\n\r\n","openingDate":"2009-09-18","webSiteUrl":"http:\/\/www.ovenbar.com","globalStatus":"up","massTransitInfo":"Metro Berri, coin Sanguinet","contactPhoneNumber":"(514) 903-7681","civicNumber":"330","streetAddress":"rue Ste-Catherine Est","city":"Montreal","province":"QC","country":"CANADA","postalCode":"H2X 1L7","lat":45.512945,"lng":-73.560998},"44c3eba13e1d749835485a7c0255227e":{"id":"44c3eba13e1d749835485a7c0255227e","name":"Parc Molson \/ Cin\u00e9ma Beaubien Antenne","description":"Cin\u00e9ma de R\u00e9pertoire \/ Parc Molson\r\n\r\n\r\n\r\n\r\n\r\n","openingDate":"2007-03-25","webSiteUrl":"http:\/\/www.cinemabeaubien.com","globalStatus":"up","massTransitInfo":"M\u00e9tro Fabre+Bus 45 Sud ou M\u00e9tro Beaubien+Bus 18 Est","contactPhoneNumber":"(514) 721-6060","civicNumber":"2396","streetAddress":"Beaubien E.","city":"Montr\u00e9al","province":"Queb\u00e9c","country":"Canada","postalCode":"H2G 1N2","lat":45.548919,"lng":-73.592412},"6b2942c425211dc64d6328403917de4a":{"id":"6b2942c425211dc64d6328403917de4a","name":"P\u00e2tisserie Jo-el","description":"P\u00e4tisserie, Boulangerie et Pr\u00eat \u00e0 Manger...\r\nCaf\u00e9 espresso et d\u00e9jeuner d\u00eener\r\n\r\n\r\n","openingDate":"2008-11-14","webSiteUrl":"","globalStatus":"up","massTransitInfo":"M\u00e9tro Cr\u00e9mazie","contactPhoneNumber":"(514) 387-0293","civicNumber":"351","streetAddress":"rue de Li\u00e8ge Est","city":"Montr\u00e9al","province":"QC","country":"CANADA","postalCode":"H2P 1J6","lat":45.54389,"lng":-73.635641},"db31fa57bbd410bfe8d28331d035d14d":{"id":"db31fa57bbd410bfe8d28331d035d14d","name":"Piazzetta St-Denis","description":"\r\n\r\n\r\n\r\n","openingDate":"2009-07-29","webSiteUrl":"","globalStatus":"up","massTransitInfo":"Metro Sherbrooke","contactPhoneNumber":"(514) 847-0184","civicNumber":"4097","streetAddress":"rue St-Denis","city":"Montreal","province":"QC","country":"CANADA","postalCode":"H2W 2M7","lat":45.52114,"lng":-73.576239},"a465f3ae3f90ea680bbae3dde22f5e9e":{"id":"a465f3ae3f90ea680bbae3dde22f5e9e","name":"Plan\u00e8te Sans-Fil","description":"Dans le vieux Montr\u00e9al, au Vieux-Port. Antenne omni ext\u00e9rieur. \r\n\r\n","openingDate":"2005-06-07","webSiteUrl":"http:\/\/www.planetesansfil.com\/","globalStatus":"up","massTransitInfo":"M\u00e9tro Square-Victoria et autobus 61 sud (McGill)","contactPhoneNumber":"(514) 284-1049","civicNumber":"106","streetAddress":"rue St-Pierre, Suite 204 (Coin de la Commune)","city":"Montr\u00e9al","province":"Qu\u00e9bec","country":"Canada","postalCode":"H2Y 2L7","lat":45.500271,"lng":-73.553557},"e9088b9fd12e9b7ba53c1a6c3eec3977":{"id":"e9088b9fd12e9b7ba53c1a6c3eec3977","name":"Promenade Bellerive","description":"Parc et bord de fleuve\r\n\r\n\r\n\r\n\r\n\r\n\r\n\r\n","openingDate":"2006-05-27","webSiteUrl":"","globalStatus":"down","massTransitInfo":"M\u00e9tro H. Beaugrand+Bus 185 E. terminus","contactPhoneNumber":"(514) 493-1967","civicNumber":"8300","streetAddress":"rue Bellerive","city":"Montr\u00e9al","province":"QC","country":"CANADA","postalCode":"H1L 6S2","lat":45.59505,"lng":-73.50925},"72ee71749352c35a9c50c1fd2a0f9a6c":{"id":"72ee71749352c35a9c50c1fd2a0f9a6c","name":"Pub Kabaret 2656","description":"Chaleureux bar sur la rue Masson avec une bonne s\u00e9lection de micro-brasserie, vin et whisky.\r\n\r\n\r\n\r\n\r\n\r\n\r\n\r\n\r\n\r\n\r\n\r\n\r\n\r\n\r\n","openingDate":"2009-11-20","webSiteUrl":"http:\/\/www.facebook.com\/group.php?gid=137878720194","globalStatus":"up","massTransitInfo":"M\u00e9tro Frontenac et autobus 94","contactPhoneNumber":"(514) 524-0347","civicNumber":"2656","streetAddress":"rue Masson","city":"Montr\u00e9al","province":"QC","country":"CANADA","postalCode":"H1Y 1W2","lat":45.545961,"lng":-73.575985},"05b3856731ad0dd8e2d1cb73fa1a387d":{"id":"05b3856731ad0dd8e2d1cb73fa1a387d","name":"Quai des brumes","description":"\r\n\r\n\r\n\r\n\r\n","openingDate":"2009-08-20","webSiteUrl":"","globalStatus":"down","massTransitInfo":"M\u00e9tro Mont-Royal","contactPhoneNumber":"(514) 499-0467","civicNumber":"4481","streetAddress":"rue St-Denis","city":"Montreal","province":"QC","country":"CANADA","postalCode":"H2J 2L2","lat":45.524026,"lng":-73.582432},"2ad9b8c410c4e13ad889f0bdcf417151":{"id":"2ad9b8c410c4e13ad889f0bdcf417151","name":"Quartier \u00c9ph\u00e9m\u00e8re","description":"","openingDate":"2006-02-20","webSiteUrl":"","globalStatus":"up","massTransitInfo":"","contactPhoneNumber":"514-392-1554","civicNumber":"745","streetAddress":"Ottawa","city":"Montr\u00e9al","province":"Qu\u00e9bec","country":"Canada","postalCode":"H3C1R8","lat":45.497805,"lng":-73.556671},"8ec6da3d066b06042aff25bcaf05731f":{"id":"8ec6da3d066b06042aff25bcaf05731f","name":"Quattro D","description":"Ouvert \u00e0 toute heure du jour, 4D se mange sur place, \u00e0 l'\u00e9cole, au bureau et \u00e0 la maison. Notre objectif est de vous simplifier la vie en vous offrant des solutions-repas sant\u00e9s, rapides et abordables.\r\n\r\n\r\n\r\n\r\n\r\n","openingDate":"2008-04-03","webSiteUrl":"","globalStatus":"up","massTransitInfo":"Metro Berri-UQAM. Sortie Saint-Denis, direction sud.","contactPhoneNumber":"(514) 285-0004","civicNumber":"1242","streetAddress":"rue St-Denis","city":"Montr\u00e9al","province":"QC","country":"CANADA","postalCode":"H2X 3J6","lat":45.513343,"lng":-73.559519},"4b4f4c93179b8b1e3908a785bb683d23":{"id":"4b4f4c93179b8b1e3908a785bb683d23","name":"Ressources Jeunesse St-Laurent","description":"\r\n\r\n\r\n\r\n\r\n\r\n\r\n\r\n\r\n\r\n\r\n\r\n\r\n\r\n\r\n\r\n\r\n\r\n\r\n\r\n\r\n\r\n\r\n","openingDate":"2009-09-29","webSiteUrl":"http:\/\/www.rjsl.ca","globalStatus":"up","massTransitInfo":"Metro Cote-Vertu, autobus 121 vers l'est, debarque a Dutrisac, marcher nord-est","contactPhoneNumber":"(514) 748-0202","civicNumber":"1550","streetAddress":"rue Elizabeth","city":"Saint-Laurent","province":"QC","country":"CANADA","postalCode":"H4L 5N7","lat":45.521691,"lng":-73.680614},"e7a5a392f5a318d73648f3a9a604e8e4":{"id":"e7a5a392f5a318d73648f3a9a604e8e4","name":"Restaurant Itacate","description":"Restaurant M\u00e9xicain\r\n\r\n\r\n\r\n\r\n\r\n","openingDate":"2008-08-02","webSiteUrl":"","globalStatus":"up","massTransitInfo":"M\u00e9tro Beaubien","contactPhoneNumber":"(514) 861.6635","civicNumber":"59 ","streetAddress":"rue Beaubien Est","city":"Montr\u00e9al","province":"QC","country":"CANADA","postalCode":"H2S 1R1","lat":45.531018,"lng":-73.607746},"da6b5f8def6ff34828eeaefdac3c08da":{"id":"da6b5f8def6ff34828eeaefdac3c08da","name":"Restaurant L'Atelier","description":"\r\n\r\n\r\n","openingDate":"2009-10-16","webSiteUrl":"","globalStatus":"down","massTransitInfo":"","contactPhoneNumber":"(514) 273-7442","civicNumber":"5308","streetAddress":"Boul. St-Laurent","city":"Montreal","province":"QC","country":"CANADA","postalCode":"H2T 1S1","lat":45.524593,"lng":-73.596661},"31e5f4dfa84f25399dfc408f4156844e":{"id":"31e5f4dfa84f25399dfc408f4156844e","name":"Resto\/Bar \u00e0 l'Aventure","description":"Resto\/Bar \u00e0 l'Aventure\r\n\r\n\r\n\r\n\r\n\r\n\r\n\r\n\r\n\r\n\r\n\r\n\r\n\r\n\r\n\r\n\r\n\r\n\r\n\r\n\r\n\r\n\r\n","openingDate":"2005-05-18","webSiteUrl":"http:\/\/www.alaventure.com","globalStatus":"up","massTransitInfo":"","contactPhoneNumber":"(514) 866-9439","civicNumber":"438","streetAddress":"Place Jacques-Cartier","city":"Montr\u00e9al","province":"QC","country":"CANADA","postalCode":"H2Y 3B3","lat":45.50776,"lng":-73.553392},"992ac7213231941863fc09f4a82f2174":{"id":"992ac7213231941863fc09f4a82f2174","name":"Resto\/Bar \u00e0 l'Aventure (Antenne ext\u00e9rieure)","description":"Resto\/Bar \u00e0 l'Aventure, antenne ext\u00e9rieure\r\n\r\n\r\n\r\n\r\n\r\n\r\n\r\n\r\n\r\n","openingDate":"2005-09-07","webSiteUrl":"http:\/\/www.alaventure.com","globalStatus":"down","massTransitInfo":"","contactPhoneNumber":"(514) 866-9439","civicNumber":"438","streetAddress":"Place Jacques-Cartier","city":"Montreal","province":"QC","country":"CANADA","postalCode":"H2Y 3B3","lat":45.507723,"lng":-73.553102},"e3ff0974e0981d3120a6260def1a3614":{"id":"e3ff0974e0981d3120a6260def1a3614","name":"Resto-Pub 100 G\u00e9nies","description":"\u00c9cole de Technologie Sup\u00e9rieure (Pavillon B)\r\n\r\n\r\n\r\n\r\n\r\n\r\n\r\n\r\n\r\n\r\n\r\n\r\n\r\n\r\n\r\n\r\n\r\n\r\n","openingDate":"2005-03-07","webSiteUrl":"http:\/\/asso.etsmtl.ca\/","globalStatus":"up","massTransitInfo":"M\u00e9tro Bonaventure","contactPhoneNumber":"(514) 396-8883","civicNumber":"530","streetAddress":"rue Peel","city":"Montr\u00e9al","province":"QC","country":"CANADA","postalCode":"H3C 2H1","lat":45.495398,"lng":-73.563359},"5506762da257d241ba0bbc92dfbe6f23":{"id":"5506762da257d241ba0bbc92dfbe6f23","name":"Salon B Bibliocaf\u00e9","description":"Alfred Dallaire - Salon B au deuxi\u00e8me \u00e9tage. Le signal peut \u00eatre capt\u00e9 \u00e0 partir du parc \u00e0 c\u00f4t\u00e9.\r\n\r\n\r\n\r\n\r\n\r\n\r\n\r\n\r\n\r\n\r\n\r\n\r\n\r\n","openingDate":"2005-05-15","webSiteUrl":"","globalStatus":"up","massTransitInfo":"","contactPhoneNumber":"(514) 849-9806","civicNumber":"4231","streetAddress":"boul. St-Laurent","city":"Montr\u00e9al","province":"QC","country":"CANADA","postalCode":"H2W 1Z4","lat":45.518376,"lng":-73.582242},"3ae58fcd3e3f35145a11ebd0f879a455":{"id":"3ae58fcd3e3f35145a11ebd0f879a455","name":"Salon Mogador","description":"Salon de Th\u00e9, Lounge.\r\n\r\n\r\n\r\n\r\n\r\n\r\n\r\n\r\n\r\n","openingDate":"2006-05-31","webSiteUrl":"http:\/\/www.mogador.ca\/","globalStatus":"up","massTransitInfo":"M\u00e9tro Beaubien","contactPhoneNumber":"(514) 279-3530","civicNumber":"310","streetAddress":"rue Beaubien Est","city":"Montr\u00e9al","province":"QC","country":"CANADA","postalCode":"H2S 1R5","lat":45.532229,"lng":-73.606786},"ae181e07dea436732e26e3642b14de68":{"id":"ae181e07dea436732e26e3642b14de68","name":"Santropol Caf\u00e9","description":"\r\n\r\n\r\n\r\n\r\n\r\n\r\n\r\n\r\n","openingDate":"2005-04-13","webSiteUrl":"http:\/\/www.santropol.com\/","globalStatus":"up","massTransitInfo":"Autobus 55 Saint-Laurent","contactPhoneNumber":"(514) 842-3110","civicNumber":"3990","streetAddress":"rue St-Urbain","city":"Montr\u00e9al","province":"QC","country":"CANADA","postalCode":"H2W 1T7","lat":45.515669,"lng":-73.580412},"600468bd2c3aca4906c8400f2f847b49":{"id":"600468bd2c3aca4906c8400f2f847b49","name":"Soci\u00e9t\u00e9 des arts technologiques","description":"Lieu de convergence, la Soci\u00e9t\u00e9 des arts technologiques [SAT] rassemble la communaut\u00e9 des cr\u00e9ateurs utilisant les technologies num\u00e9riques dans le but de stimuler des collaborations entre disciplines artistiques et scientifiques tout en d\u00e9veloppant des collaborations avec l\u2019industrie et les institutions d\u2019enseignement et en assurant la promotion de ses membres ici et \u00e0 l\u2019\u00e9tranger. Par ses activit\u00e9s, la SAT facilite l\u2019acc\u00e8s \u00e0 des ressources humaines et techniques et suscite la r\u00e9flexion sur les enjeux li\u00e9s \u00e0 l\u2019utilisation des technologies.\r\n\r\n","openingDate":"2007-08-22","webSiteUrl":"http:\/\/www.sat.qc.ca\/","globalStatus":"down","massTransitInfo":"M\u00e9tro St-Laurent","contactPhoneNumber":"(514) 844-2033","civicNumber":"1195","streetAddress":"Saint-Laurent","city":"Montr\u00e9al","province":"Qu\u00e9bec","country":"Canada","postalCode":"H5B 1C2","lat":45.509514,"lng":-73.562649},"7ec19338e69c51d53d3787dc30f3d16c":{"id":"7ec19338e69c51d53d3787dc30f3d16c","name":"St-Laurent - Ar\u00e9na Raymond Bourque - Glace A  1","description":"Arena Raymond Bourque - Glace A (1)\r\n\r\n\r\n\r\n\r\n\r\n\r\n\r\n\r\n\r\n\r\n\r\n\r\n","openingDate":"2007-10-04","webSiteUrl":"","globalStatus":"up","massTransitInfo":"","contactPhoneNumber":"","civicNumber":"2345","streetAddress":"Boul Thimens","city":"Montr\u00e9al","province":"QC","country":"Canada","postalCode":"H4R 1A1","lat":0,"lng":0},"b1718cc2efbbe7d36803bfade1fce956":{"id":"b1718cc2efbbe7d36803bfade1fce956","name":"St-Laurent - Ar\u00e9na Raymond Bourque - Glace A  2","description":"Ar\u00e9na Raymond Bourque - Glace A (2)\r\n\r\n\r\n\r\n\r\n\r\n\r\n\r\n\r\n\r\n","openingDate":"2007-10-04","webSiteUrl":"","globalStatus":"up","massTransitInfo":"","contactPhoneNumber":"","civicNumber":"2345","streetAddress":"Boul Thimens","city":"Montr\u00e9al","province":"QC","country":"Canada","postalCode":"H4R 1A1","lat":0,"lng":0},"59616cf009112d8f8bd0aeefe2df1356":{"id":"59616cf009112d8f8bd0aeefe2df1356","name":"St-Laurent - Ar\u00e9na Raymond Bourque - Glace B","description":"Arena Raymond Bourque - Glace B\r\n\r\n\r\n\r\n\r\n\r\n\r\n\r\n\r\n\r\n","openingDate":"2007-10-04","webSiteUrl":"","globalStatus":"up","massTransitInfo":"","contactPhoneNumber":"","civicNumber":"2345","streetAddress":"Boul Thimens","city":"Montr\u00e9al","province":"QC","country":"Canada","postalCode":"H4R 1T4","lat":0,"lng":0},"4adc22ac6fddf003a64c3c74d9f90bc0":{"id":"4adc22ac6fddf003a64c3c74d9f90bc0","name":"St-Laurent - Ar\u00e9na Raymond Bourque - Hall","description":"Arena Raymond Bourque - Hall d'entr\u00e9e\r\n\r\n\r\n\r\n\r\n\r\n\r\n\r\n\r\n\r\n","openingDate":"2007-10-04","webSiteUrl":"","globalStatus":"up","massTransitInfo":"","contactPhoneNumber":"","civicNumber":"2345","streetAddress":"Boul Thimens","city":"Montr\u00e9al","province":"QC","country":"Canada","postalCode":"H4R 1A1","lat":45.507565,"lng":-73.700881},"6d327da17e12075060b95399114a8b2b":{"id":"6d327da17e12075060b95399114a8b2b","name":"St-Laurent - Bureau du Citoyen","description":"Mairie de Saint-Laurent - Bureau du Citoyen\r\n\r\n\r\n\r\n\r\n\r\n\r\n\r\n\r\n\r\n\r\n\r\n","openingDate":"2007-04-23","webSiteUrl":"","globalStatus":"up","massTransitInfo":"M\u00e9tro du Coll\u00e8ge","contactPhoneNumber":"514 855-6000","civicNumber":"777","streetAddress":"boul. Marcel-Laurin","city":"Arrondissement Saint-Laurent","province":"Qu\u00e9bec","country":"Canada","postalCode":"H4M 2M7","lat":45.507249,"lng":-73.682824},"4e73184f96f50db063b4362b506d8d59":{"id":"4e73184f96f50db063b4362b506d8d59","name":"St-Laurent - Centre de Loisirs 03","description":"\r\n\r\n\r\n\r\n","openingDate":"2009-04-18","webSiteUrl":"http:\/\/saintlaurent.ville.montreal.qc.ca\/En\/Intro\/Maps\/Centre\/centre.asp","globalStatus":"down","massTransitInfo":"Metro Cote-Vertu, autobus 121 Ouest, arret Boul. Marcel-Laurin, marche vers le nord 3 bloques","contactPhoneNumber":"(514) 855-6000","civicNumber":"1375","streetAddress":"rue Grenet","city":"Saint-Laurent","province":"QC","country":"CANADA","postalCode":"H4L 5K3","lat":45.514136,"lng":-73.691268},"d51a1c45323d3d00583aef7912f2f0c1":{"id":"d51a1c45323d3d00583aef7912f2f0c1","name":"St-Laurent - Centre de Loisirs 04","description":"\r\n\r\n","openingDate":"2009-04-18","webSiteUrl":"","globalStatus":"up","massTransitInfo":"","contactPhoneNumber":"","civicNumber":"","streetAddress":"","city":"","province":"","country":"","postalCode":"","lat":0,"lng":0},"3ef2a4aba3242d3b55d0faf26456900c":{"id":"3ef2a4aba3242d3b55d0faf26456900c","name":"St-Laurent - Centre de Loisirs 05","description":"\r\n\r\n\r\n","openingDate":"2009-04-18","webSiteUrl":"","globalStatus":"up","massTransitInfo":"","contactPhoneNumber":"","civicNumber":"","streetAddress":"","city":"","province":"","country":"","postalCode":"","lat":0,"lng":0},"2133091794c69480a22fa67c0cd792f9":{"id":"2133091794c69480a22fa67c0cd792f9","name":"St-Laurent - Centre de Loisirs 06","description":"\r\n\r\n","openingDate":"2009-04-18","webSiteUrl":"","globalStatus":"up","massTransitInfo":"","contactPhoneNumber":"","civicNumber":"","streetAddress":"","city":"","province":"","country":"","postalCode":"","lat":0,"lng":0},"fc1c82e5a1c27af944b60688d20f32b1":{"id":"fc1c82e5a1c27af944b60688d20f32b1","name":"St-Laurent - Hotel de Ville","description":"Mairie de Saint Laurent\r\n\r\n\r\n\r\n\r\n\r\n\r\n\r\n\r\n\r\n\r\n\r\n\r\n\r\n\r\n\r\n\r\n\r\n\r\n\r\n\r\n\r\n\r\n\r\n\r\n","openingDate":"2007-04-23","webSiteUrl":"","globalStatus":"up","massTransitInfo":"M\u00e9tro du Coll\u00e8ge","contactPhoneNumber":"514 855-6000","civicNumber":"777","streetAddress":"Boul. Marcel-Laurin","city":"Arrondissement Saint-Laurent","province":"Qu\u00e9bec","country":"Canada","postalCode":"H4M 2M7","lat":45.507106,"lng":-73.682578},"4621b1bf2ace11e59ccd6adc24f669ac":{"id":"4621b1bf2ace11e59ccd6adc24f669ac","name":"St-Laurent - Salle du Conseil","description":"Mairie de Saint-Laurent - Salle du Conseil\r\n\r\n\r\n\r\n\r\n\r\n\r\n\r\n\r\n\r\n\r\n\r\n\r\n\r\n\r\n","openingDate":"2007-04-23","webSiteUrl":"","globalStatus":"up","massTransitInfo":"M\u00e9tro du Coll\u00e8ge","contactPhoneNumber":"514 855-6000","civicNumber":"777","streetAddress":"Boulevard Marcel-Laurin","city":"Arrondissement Saint-Laurent","province":"Qu\u00e9bec","country":"Canada","postalCode":"H4M 2M7","lat":45.50726,"lng":-73.682615},"821c1a118766ab381eb7921481edba19":{"id":"821c1a118766ab381eb7921481edba19","name":"St-Sulpice (bar 2)","description":"","openingDate":"2005-09-07","webSiteUrl":"","globalStatus":"down","massTransitInfo":"","contactPhoneNumber":"","civicNumber":"","streetAddress":"","city":"","province":"","country":"","postalCode":"","lat":0,"lng":0},"b18ce9327131b6c149ddf4369c7e95d6":{"id":"b18ce9327131b6c149ddf4369c7e95d6","name":"St-Sulpice (L'original)","description":"Bar en bas arri\u00e8re\r\n\r\n\r\n\r\n\r\n\r\n\r\n\r\n\r\n\r\n\r\n\r\n\r\n","openingDate":"2005-11-26","webSiteUrl":"","globalStatus":"up","massTransitInfo":"M\u00e9tro Berri, sortie St-Denis","contactPhoneNumber":"(514) 844-9458","civicNumber":"1680","streetAddress":"rue St-Denis","city":"Montr\u00e9al","province":"QC","country":"CANADA","postalCode":"H2X 3K6","lat":45.515159,"lng":-73.564196},"8be797d35fcc846307c5ef1f9b4745c3":{"id":"8be797d35fcc846307c5ef1f9b4745c3","name":"St-Sulpice (Place de l'ange)","description":"Bar en haut nord\r\n\r\n\r\n\r\n","openingDate":"2005-09-07","webSiteUrl":"","globalStatus":"down","massTransitInfo":"","contactPhoneNumber":"(514) 844-9458","civicNumber":"1680","streetAddress":"rue St-Denis","city":"Montr\u00e9al","province":"QC","country":"CANADA","postalCode":"H2X 3K6","lat":45.515174,"lng":-73.564239},"5251df61a258357fd98dd7dd2c1e10d2":{"id":"5251df61a258357fd98dd7dd2c1e10d2","name":"St-Sulpice (Terrasse)","description":"St-Sulpice (\u00e9tage du bas)\r\n\r\n\r\n\r\n","openingDate":"2005-05-03","webSiteUrl":"","globalStatus":"up","massTransitInfo":"","contactPhoneNumber":"(514) 844-9458","civicNumber":"1680","streetAddress":"rue St-Denis","city":"Montr\u00e9al","province":"Qu\u00e9bec","country":"CANADA","postalCode":"H2X 3K6","lat":45.515204,"lng":-73.564292},"bfaef30f993dc05e4a8f1ecfba12a577":{"id":"bfaef30f993dc05e4a8f1ecfba12a577","name":"Studio4fun","description":"\r\nStudio4fun s\u2019inspire de la structure d\u2019affaire de Communauto\u00ae pour cr\u00e9er le \u00ab studio-partage \u00bb et ainsi mettre un studio de photographie \u00e0 la disposition exclusive de ses abonn\u00e9s. En vous abonnant \u00e0 Studio4fun vous aurez acc\u00e8s \u00e0 un espace de travail qui se loue \u00e0 petit prix pour une p\u00e9riode de 6 heures ou plus, selon vos besoins. Situ\u00e9 au sein du Centre RCA, facilement accessible en m\u00e9tro et en voiture, cet espace de travail est disponible 7 jours sur 7, tout au long de l\u2019ann\u00e9e.\r\n\r\n\r\n\r\n\r\n\r\n\r\n\r\n\r\n\r\n\r\n\r\n\r\n\r\n\r\n\r\n\r\n\r\n\r\n\r\n\r\n\r\n\r\n","openingDate":"2009-02-28","webSiteUrl":"http:\/\/www.studio4fun.ca","globalStatus":"up","massTransitInfo":"Metro Place Saint-Henri + 600m de marche","contactPhoneNumber":"514-384-9115","civicNumber":"1001","streetAddress":"Lenoir ","city":"montr\u00e9al","province":"Qu\u00e9bec","country":"CANADA","postalCode":"H4C2Z6","lat":45.476651,"lng":-73.591915},"0ee0d91aa3b6c6a272be86e564661ac9":{"id":"0ee0d91aa3b6c6a272be86e564661ac9","name":"Studio Bizz","description":"Location de studios pour l'enseignement, la cr\u00e9ation et la production des arts de la sc\u00e8ne.\r\n\r\n\r\n\r\n\r\n\r\n\r\n\r\n","openingDate":"2008-08-19","webSiteUrl":"http:\/\/www.studiobizz.com\/fr\/page_principale.htm","globalStatus":"up","massTransitInfo":"M\u00e9tro Mont-Royal","contactPhoneNumber":"(514) 526-2455","civicNumber":"551","streetAddress":"avenue Mont-Royal Est","city":"Montr\u00e9al","province":"QC","country":"CANADA","postalCode":"H2J 1W6","lat":45.525172,"lng":-73.581978},"cb48b6066f4e312f96110c9af0bfbf68":{"id":"cb48b6066f4e312f96110c9af0bfbf68","name":"Studio Danse Montreal","description":"\r\n\r\n\r\n\r\n\r\n\r\n\r\n","openingDate":"2009-04-30","webSiteUrl":"http:\/\/www.studiodansemontreal.com","globalStatus":"up","massTransitInfo":"Metro de Castelnau","contactPhoneNumber":"(514) 223-3918","civicNumber":"7240","streetAddress":"Rue Clark","city":"Montreal","province":"QC","country":"CANADA","postalCode":"H2R 2Y3","lat":45.534266,"lng":-73.619857},"01366e6aba350a6da0e8a9fd890144b1":{"id":"01366e6aba350a6da0e8a9fd890144b1","name":"Sushi Shop","description":"\r\n\r\n\r\n\r\n\r\n\r\n\r\n\r\n\r\n\r\n","openingDate":"2009-06-19","webSiteUrl":"http:\/\/www.sushishop.com","globalStatus":"up","massTransitInfo":"Metro McGill","contactPhoneNumber":"(514) 286-2929","civicNumber":"439","streetAddress":"avenue du President-Kennedy","city":"Montreal","province":"QC","country":"CANADA","postalCode":"H3A 1J5","lat":45.506903,"lng":-73.570397},"29d329546a292535e8d65cc9c40782c0":{"id":"29d329546a292535e8d65cc9c40782c0","name":"Taverne Jarry","description":"\r\n\r\n\r\n\r\n\r\n\r\n\r\n\r\n","openingDate":"2009-10-13","webSiteUrl":"","globalStatus":"up","massTransitInfo":"Metro Jarry","contactPhoneNumber":"(514) 271-0950","civicNumber":"552","streetAddress":"rue Jarry Est (coin Lajeunesse)","city":"Montreal","province":"QC","country":"CANADA","postalCode":"H2R 2J5","lat":45.543832,"lng":-73.628354},"beb79d2d21e84cf75f5c1378c75a533f":{"id":"beb79d2d21e84cf75f5c1378c75a533f","name":"Titanic","description":"TRAITEUR DE BUREAU, R\u00c9UNIONS & R\u00c9CEPTIONS\r\n...depuis 1989\r\n\r\nLundi au vendredi 7h \u00e0 16h30\r\n\r\n\r\n\r\n\r\n\r\n","openingDate":"2004-12-02","webSiteUrl":"http:\/\/titanic-mtl.ca\/","globalStatus":"up","massTransitInfo":"M\u00e9tro Square-Victoria","contactPhoneNumber":"(514) 849-0894","civicNumber":"445","streetAddress":"rue St-Pierre","city":"Montr\u00e9al","province":"QC","country":"CANADA","postalCode":"H2Y 2M8","lat":45.501903,"lng":-73.557748},"2cdb7efc0c49e9e2cd08ee7b30fb4c7e":{"id":"2cdb7efc0c49e9e2cd08ee7b30fb4c7e","name":"VDL2-A","description":"VDL2 est une agence dont les champs d'intervention sont les communications, le marketing interactif, l'exploitation de sites Web et le commerce \u00e9lectronique. Fond\u00e9e en 1994, elle est l'une des plus anciennes entreprises qu\u00e9b\u00e9coises dans ce domaine. Elle est \u00e9galement l'une des plus importantes compagnies qu\u00e9b\u00e9coises ayant Internet comme seul et unique secteur d'activit\u00e9.\r\n\r\n\r\n\r\n\r\n\r\n\r\n","openingDate":"2009-04-14","webSiteUrl":"http:\/\/www.vdl2.ca","globalStatus":"up","massTransitInfo":"","contactPhoneNumber":"(514) 599-5712","civicNumber":"75","streetAddress":"rue Queen","city":"Montr\u00e9al","province":"QC","country":"CANADA","postalCode":"H3C 2N6","lat":45.498021,"lng":-73.555031},"e41bef03bad7d7d0eda594e007c6277f":{"id":"e41bef03bad7d7d0eda594e007c6277f","name":"VDL2-B","description":"VDL2 est une agence dont les champs d'intervention sont les communications, le marketing interactif, l'exploitation de sites Web et le commerce \u00e9lectronique. Fond\u00e9e en 1994, elle est l'une des plus anciennes entreprises qu\u00e9b\u00e9coises dans ce domaine. Elle est \u00e9galement l'une des plus importantes compagnies qu\u00e9b\u00e9coises ayant Internet comme seul et unique secteur d'activit\u00e9.\r\n\r\n\r\n\r\n","openingDate":"2009-03-26","webSiteUrl":"http:\/\/www.vdl2.ca","globalStatus":"up","massTransitInfo":"","contactPhoneNumber":"(514) 599-5712","civicNumber":"75","streetAddress":"rue Queen","city":"Montr\u00e9al","province":"QC","country":"CANADA","postalCode":"H3C 2N6","lat":45.497744,"lng":-73.554411},"9d4fb6e5494484123d0b375061492c71":{"id":"9d4fb6e5494484123d0b375061492c71","name":"VDL2-C","description":"VDL2 est une agence dont les champs d'intervention sont les communications, le marketing interactif, l'exploitation de sites Web et le commerce \u00e9lectronique.\r\n\r\n\r\n\r\n\r\n\r\n","openingDate":"2009-03-26","webSiteUrl":"http:\/\/www.vdl2.com","globalStatus":"up","massTransitInfo":"","contactPhoneNumber":"(514) 599-5712","civicNumber":"75","streetAddress":"rue Queen","city":"Montreal","province":"QC","country":"CANADA","postalCode":"H3C 2N6","lat":45.497331,"lng":-73.554454},"8c3b0f5276c30e1377cf41218806baf5":{"id":"8c3b0f5276c30e1377cf41218806baf5","name":"Verger Express","description":"Caf\u00e9 situ\u00e9 dans la gare de train de banlieue de Deux-Montagne\r\n\r\n\r\n\r\n\r\n\r\n\r\n\r\n\r\n\r\n\r\n\r\n\r\n","openingDate":"2008-03-03","webSiteUrl":"","globalStatus":"up","massTransitInfo":"Train de banlieue direction Deux-Montagnes","contactPhoneNumber":"(450) 623-3773","civicNumber":"400","streetAddress":"boulevard des Deux-Montagnes","city":"Deux-Montagnes","province":"Qu\u00e9bec","country":"Canada","postalCode":"J7R7C2","lat":45.545655,"lng":-73.912771},"be223a626ba41d722bc1e68fdbc00af9":{"id":"be223a626ba41d722bc1e68fdbc00af9","name":"Verre Bouteille","description":"Un caf\u00e9 bar qui appartient au distingu\u00e9 club des institutions du plateau Mont-Royal - depuis 1942.\r\n\r\n\r\n\r\n\r\n\r\n\r\n\r\n","openingDate":"2008-02-14","webSiteUrl":"http:\/\/www.verrebouteille.com","globalStatus":"up","massTransitInfo":"Autobus 97 Mont Royal\/de Lorimier","contactPhoneNumber":"(514) 521-9409","civicNumber":"2112","streetAddress":"Avenue Mont-Royal Est","city":"Montr\u00e9al","province":"QC","country":"CANADA","postalCode":"H2H 1J8","lat":45.535947,"lng":-73.57187},"999bd3aab6060172fc48cef3295114dd":{"id":"999bd3aab6060172fc48cef3295114dd","name":"Vices & Versa","description":"\r\n\r\n\r\n\r\n","openingDate":"2005-01-21","webSiteUrl":"http:\/\/vicesetversa.com","globalStatus":"up","massTransitInfo":"M\u00e9tro Beaubien","contactPhoneNumber":"(514) 272-2498","civicNumber":"6631","streetAddress":"boul. St-Laurent","city":"Montr\u00e9al","province":"QC","country":"CANADA","postalCode":"H2S 3C5","lat":45.53162,"lng":-73.611038},"6510b51f50c829c58284f9bfac9dc037":{"id":"6510b51f50c829c58284f9bfac9dc037","name":"Village, Autour d'un pain","description":"Artisan Boulanger, Caf\u00e9, P\u00e2tisseries et Sandwich\r\n\r\n\r\n\r\n","openingDate":"2007-03-30","webSiteUrl":"","globalStatus":"up","massTransitInfo":"M\u00e9tro Beaudry","contactPhoneNumber":"514-509-7676","civicNumber":"1219","streetAddress":"Ste-Catherine est","city":"Montr\u00e9al","province":"QC","country":"Canada","postalCode":"H2L 2H1","lat":45.518662,"lng":-73.556235},"700bc0449c2816e938e0f60fd87f9ffd":{"id":"700bc0449c2816e938e0f60fd87f9ffd","name":"Village, Bar STUD","description":"Un bar d'hommes o\u00f9 les hommes aiment les hommes\r\n","openingDate":"2006-07-22","webSiteUrl":"http:\/\/www.studbar.com","globalStatus":"down","massTransitInfo":"","contactPhoneNumber":"514-598-8243","civicNumber":"1812","streetAddress":"Ste-Catherine Est","city":"514-598-8243","province":"Qu\u00e9bec","country":"Canada","postalCode":"H2K 2H3","lat":45.522917,"lng":-73.551919},"1f7d91f0543a471d960503a986c51b36":{"id":"1f7d91f0543a471d960503a986c51b36","name":"Village, Bar STUD Antenne","description":"Un bar d'homme o\u00f9 les hommes aiment les hommes","openingDate":"2006-07-22","webSiteUrl":"http:\/\/www.studbar.com","globalStatus":"down","massTransitInfo":"","contactPhoneNumber":"514-598-8243","civicNumber":"1812","streetAddress":"Ste-Catherine Est","city":"Montr\u00e9al","province":"Qu\u00e9bec","country":"Canada","postalCode":"H2K 2H3","lat":0,"lng":0},"16a5d484dd111ab09b92ecf4238daf96":{"id":"16a5d484dd111ab09b92ecf4238daf96","name":"Village, Caf\u00e9 Europ\u00e9en","description":"","openingDate":"2006-11-18","webSiteUrl":"","globalStatus":"up","massTransitInfo":"M\u00e9tro Papineau","contactPhoneNumber":"514-523-4679","civicNumber":"1572","streetAddress":"Ste Catherine est","city":"Montr\u00e9al","province":"Qu\u00e9bec","country":"Canada","postalCode":"H2L 2J2","lat":45.521275,"lng":-73.553561},"c605da1917354bb3ac1c17873b618a1a":{"id":"c605da1917354bb3ac1c17873b618a1a","name":"Village, Caf\u00e9 L'Escalier","description":"Cuisine Bio, Caf\u00e9, Bar, Spectacles\r\n\r\n\r\n\r\n\r\n\r\n\r\n\r\n\r\n\r\n\r\n\r\n\r\n\r\n\r\n\r\n\r\n\r\n\r\n","openingDate":"2008-04-15","webSiteUrl":"http:\/\/lescaliermontreal.com","globalStatus":"up","massTransitInfo":"M\u00e9tro Berri","contactPhoneNumber":"514-670-5812","civicNumber":"552","streetAddress":"Ste-Catherine est","city":"Montr\u00e9al","province":"Qc","country":"Canada","postalCode":"H2L 2E1","lat":45.514963,"lng":-73.559149},"f97da4f80f6f19649cd27991f9731a73":{"id":"f97da4f80f6f19649cd27991f9731a73","name":"Village, Caf\u00e9 L'Escalier Antenne","description":"Parc Emilie Gamelin, offert par le Caf\u00e9 L'Escalier\r\n\r\n\r\n\r\n\r\n\r\n\r\n\r\n\r\n\r\n\r\n\r\n\r\n\r\n\r\n\r\n\r\n","openingDate":"2008-04-17","webSiteUrl":"","globalStatus":"up","massTransitInfo":"M\u00e9tro Berri","contactPhoneNumber":"(514) 670-5812","civicNumber":"552","streetAddress":"rue Sainte-Catherine","city":"Montreal","province":"QC","country":"CANADA","postalCode":"H2L 2E1","lat":45.515279,"lng":-73.559861},"d4c3fc83c6e97b3e920ffb21d1a51247":{"id":"d4c3fc83c6e97b3e920ffb21d1a51247","name":"Village, Club Sandwich","description":"En plein coeur du village gai de Montr\u00e9al, sur la rue Sainte-Catherine, le Club-Sandwich est anim\u00e9e de jour comme de nuit par une client\u00e8le haute en couleur, dans un d\u00e9cor o\u00f9 les juke-boxes et le chrome sont omnipr\u00e9sents. Il offre, comme sont nom l'indique si bien, plus de 60 sandwichs servis avec une montagne de frites croustillantes et la fameuse salade de choux. Les d\u00e9jeuners y sont offerts en tout temps. On peut \u00e9galement y d\u00e9guster de tr\u00e8s bons hamburgers et d'\u00e9normes g\u00e2teaux. Une institution dans le village gay de Montr\u00e9al!","openingDate":"2006-11-18","webSiteUrl":"","globalStatus":"up","massTransitInfo":"M\u00e9tro Papineau","contactPhoneNumber":"514-523-4679","civicNumber":"1578","streetAddress":"Ste Catherine est","city":"Montr\u00e9al","province":"Qu\u00e9bec","country":"Canada","postalCode":"H2L 2J2","lat":45.521738,"lng":-73.553151},"712ba18bd1e0ab9d5ef9dd0a1b952c27":{"id":"712ba18bd1e0ab9d5ef9dd0a1b952c27","name":"Village, D\u00e9panneur du Village","description":"D\u00e9panneur, Vari\u00e9t\u00e9s, Cr\u00e8merie, Charcuterie\r\n\r\n","openingDate":"2006-07-13","webSiteUrl":"","globalStatus":"up","massTransitInfo":"M\u00e9tro Beaudry","contactPhoneNumber":"514-524-3256","civicNumber":"1273","streetAddress":"Ste-Catherine Est","city":"Montr\u00e9al","province":"QC","country":"Canada","postalCode":"H2L 2H5","lat":45.51928,"lng":-73.5556},"3dfe39989472819ce76174df44ea6114":{"id":"3dfe39989472819ce76174df44ea6114","name":"Village, Drugstore","description":"\r\n\r\n\r\n","openingDate":"2006-06-18","webSiteUrl":"","globalStatus":"up","massTransitInfo":"","contactPhoneNumber":"","civicNumber":"","streetAddress":"","city":"","province":"","country":"","postalCode":"","lat":0,"lng":0},"b556ae5b5ff5c93c6bedc086042ec0b2":{"id":"b556ae5b5ff5c93c6bedc086042ec0b2","name":"Village, Drugstore Antenne","description":"Bar et Terrasse \r\n\r\n\r\n","openingDate":"2006-06-18","webSiteUrl":"","globalStatus":"up","massTransitInfo":"","contactPhoneNumber":"514-524-1960","civicNumber":"1366","streetAddress":"rue Sainte-Catherine Est ","city":"Montr\u00e9al","province":"QC","country":"Canada","postalCode":"H2L 2H6","lat":45.520007,"lng":-73.554636},"077086d088e0912ea99543c9a62d3307":{"id":"077086d088e0912ea99543c9a62d3307","name":"Village, \u00c9nergie Cardio","description":"","openingDate":"2006-07-07","webSiteUrl":"","globalStatus":"up","massTransitInfo":"M\u00e9tro Berri Place Dupuis","contactPhoneNumber":"514-288-7057","civicNumber":"845","streetAddress":"rue Ste-Catherine Est","city":"Montr\u00e9al","province":"QC","country":"Canada","postalCode":"H2L 4M4","lat":45.515734,"lng":-73.55879},"3e4e41096b8ba4d2b6b4a89d4b61653b":{"id":"3e4e41096b8ba4d2b6b4a89d4b61653b","name":"Village, Gotha Lounge","description":"\r\n\r\n\r\n\r\n\r\n\r\n","openingDate":"2009-06-19","webSiteUrl":"","globalStatus":"up","massTransitInfo":"","contactPhoneNumber":"(514) 526-1270","civicNumber":"1641","streetAddress":"rue Amherst","city":"Montreal","province":"QC","country":"CANADA","postalCode":"H2L 3L4","lat":45.518609,"lng":-73.559378},"8665ed6d34bd3021577b798f9657dcab":{"id":"8665ed6d34bd3021577b798f9657dcab","name":"Village, Hotel Bourbon","description":"\r\n\r\n\r\n\r\n\r\n","openingDate":"2007-10-01","webSiteUrl":"http:\/\/www.complexebourbon.ca","globalStatus":"up","massTransitInfo":"M\u00e9tro Papineau","contactPhoneNumber":"514 523-4679","civicNumber":"1578","streetAddress":"Sainte Catherine Est","city":"Montr\u00e9al","province":"QC","country":"Canada","postalCode":"H2L 2J2","lat":45.521612,"lng":-73.553256},"9c2dd4a0ec0ef9085af1974a313e74c3":{"id":"9c2dd4a0ec0ef9085af1974a313e74c3","name":"Village, Kilo Caf\u00e9","description":"Caf\u00e9 sympa, ambiance chaleureuse, prix abordables, 5 \u00e0 7 tout les soirs, au coeur du village.\r\n\r\n","openingDate":"2007-08-13","webSiteUrl":"","globalStatus":"up","massTransitInfo":"M\u00e9tro Beaudry","contactPhoneNumber":"514 596-3933","civicNumber":"1495","streetAddress":"Ste-Catherine Est","city":"Montr\u00e9al","province":"Qu\u00e9bec","country":"Canada","postalCode":"H2L 2H9","lat":45.521132,"lng":-73.553849},"7ea3a4d7e37ce70a235c8ef487974067":{"id":"7ea3a4d7e37ce70a235c8ef487974067","name":"Village, Le Cabaret Mado","description":"Pub \/ Cabaret \/ Spectacles\r\n","openingDate":"2006-06-19","webSiteUrl":"http:\/\/www.mado.qc.ca\/","globalStatus":"up","massTransitInfo":"M\u00e9tro Beaudry","contactPhoneNumber":"514-525-7566","civicNumber":"1115","streetAddress":"Ste Catherine est","city":"Montr\u00e9al","province":"Qu\u00e9bec","country":"Canada","postalCode":"H2L 2G6","lat":45.517759,"lng":-73.556938},"5b023c5097373fba9519d8ae08660bb8":{"id":"5b023c5097373fba9519d8ae08660bb8","name":"Village, Le Cabaret Mado Antenne","description":"Antenne Ext\u00e9rieure\r\n","openingDate":"2006-06-19","webSiteUrl":"http:\/\/www.mado.qc.ca\/","globalStatus":"up","massTransitInfo":"M\u00e9tro Beaudry","contactPhoneNumber":"514-525-7566","civicNumber":"1115","streetAddress":"Ste Catherine est","city":"Montr\u00e9al","province":"Qu\u00e9bec","country":"Canada","postalCode":"H2L 2G6","lat":0,"lng":0},"5b045c10693c7aa77e3314041cabd7df":{"id":"5b045c10693c7aa77e3314041cabd7df","name":"Village, Lunetterie De Visu (Antenne)","description":"Lunetterie De Visu\r\n\r\n\r\n\r\n\r\n\r\n\r\n\r\n\r\n","openingDate":"2007-01-31","webSiteUrl":"http:\/\/www.devisu.ca","globalStatus":"down","massTransitInfo":"M\u00e9tro Beaudry","contactPhoneNumber":"(514) 598-8478","civicNumber":"1365","streetAddress":"Ste-Catherine Est","city":"Montr\u00e9al","province":"QC","country":"Canada","postalCode":"H2L 2H7","lat":45.520098,"lng":-73.554674},"f64a189be0939a48ce6b14a77b2dda3b":{"id":"f64a189be0939a48ce6b14a77b2dda3b","name":"Village, Piazzetta","description":"\r\n\r\n\r\n\r\n\r\n","openingDate":"2007-06-01","webSiteUrl":"","globalStatus":"up","massTransitInfo":"","contactPhoneNumber":"","civicNumber":"1101","streetAddress":"Ste-Catherine Est","city":"Montr\u00e9al","province":"Qu\u00e9bec","country":"Canada","postalCode":"H2L2G6","lat":45.517479,"lng":-73.55705},"515a578bde6594d026f4ff87ec6a5b00":{"id":"515a578bde6594d026f4ff87ec6a5b00","name":"Village, Piazzetta Antenne","description":"Pizza!\r\n\r\n\r\n\r\n","openingDate":"2007-06-01","webSiteUrl":"","globalStatus":"up","massTransitInfo":"","contactPhoneNumber":"","civicNumber":"1101","streetAddress":"Sainte-Cath\u00e9rine Est","city":"Montr\u00e9al","province":"Qu\u00e9bec","country":"Canada","postalCode":"H2L2G6","lat":0,"lng":0},"917ee8c116267651ffd3a542bac926b1":{"id":"917ee8c116267651ffd3a542bac926b1","name":"Village, Restaurant Mike's","description":"Restaurant de style pub offrant une savoureuse nourriture de tendance italienne, dans une ambiance agr\u00e9able. Le personnel est comp\u00e9tent et courtois.","openingDate":"2006-06-30","webSiteUrl":"","globalStatus":"up","massTransitInfo":"","contactPhoneNumber":"514-843-2030","civicNumber":"902","streetAddress":"Ste-Catherine est","city":"Montr\u00e9al","province":"QC","country":"Canada","postalCode":"H2L 2E7","lat":45.516395,"lng":-73.558034},"9328f321a8aa8d1dcd6dd5224368675f":{"id":"9328f321a8aa8d1dcd6dd5224368675f","name":"Village, Restaurant Mike's Antenne","description":"Restaurant de style pub offrant une savoureuse nourriture de tendance italienne, dans une ambiance agr\u00e9able. Le personnel est comp\u00e9tent et courtois.\r\n","openingDate":"2006-06-30","webSiteUrl":"","globalStatus":"up","massTransitInfo":"","contactPhoneNumber":"","civicNumber":"","streetAddress":"","city":"","province":"","country":"","postalCode":"","lat":0,"lng":0},"b7b99670bc660db24196447f8c1ae0d9":{"id":"b7b99670bc660db24196447f8c1ae0d9","name":"Village, Salon Stephane Gagnon","description":"Salon de Coiffure \/ \u00c9pilation au Laser \/ Microdermabrasion \/Esth\u00e9tique \/ Massoth\u00e9rapie \/ Chiropratique \/ Naturoth\u00e9rapie\r\n\r\n\r\n","openingDate":"2006-06-19","webSiteUrl":"http:\/\/www.stephanegagnon.com","globalStatus":"down","massTransitInfo":"Metro Beaudry","contactPhoneNumber":"514-844-6287","civicNumber":"1200","streetAddress":"Amherst","city":"Montr\u00e9al","province":"Qu\u00e9bec","country":"Canada","postalCode":"H2L3K8","lat":45.516885,"lng":-73.555996},"17e03f2f2cf6b23d0563876c960e8280":{"id":"17e03f2f2cf6b23d0563876c960e8280","name":"Village, Sauna Oasis","description":"Sauna Oasis...Pour la cr\u00e8me des hommes !!!\r\n\r\n\r\n","openingDate":"2008-08-28","webSiteUrl":"http:\/\/www.saunaoasis.net","globalStatus":"up","massTransitInfo":"M\u00e9tro Beaudry","contactPhoneNumber":"514-521-0785","civicNumber":"1390","streetAddress":"Ste-Catherine est","city":"Montr\u00e9al","province":"QC","country":"Canada","postalCode":"H2L 2H6","lat":45.520436,"lng":-73.554229},"ac7e7e6dc289b53bbe5999471eb9837e":{"id":"ac7e7e6dc289b53bbe5999471eb9837e","name":"Village, Sauna Oasis Antenne","description":"Sauna Oasis...Pour la cr\u00e8me des hommes !!!\r\n\r\n\r\n","openingDate":"2008-08-28","webSiteUrl":"http:\/\/www.saunaoasis.net","globalStatus":"down","massTransitInfo":"M\u00e9tro Beaudry","contactPhoneNumber":"514-521-0785","civicNumber":"1390","streetAddress":"Ste-Catherine","city":"Montr\u00e9al","province":"QC","country":"Canada","postalCode":"H2L 2H6","lat":0,"lng":0},"d589381c5e9fb7ca8ca2316bddcf2e1d":{"id":"d589381c5e9fb7ca8ca2316bddcf2e1d","name":"Village, SDC","description":"Soci\u00e9t\u00e9 de D\u00e9veloppement Commerciale du Village","openingDate":"2006-07-08","webSiteUrl":"http:\/\/unmondeunvillage.com","globalStatus":"down","massTransitInfo":"M\u00e9tro Beaudry","contactPhoneNumber":"514-529-1168","civicNumber":"1324","streetAddress":"Ste-Catherine est","city":"Montr\u00e9al","province":"QC","country":"Canada","postalCode":"H2L 2H5","lat":45.519589,"lng":-73.554962},"4fb31128a76c6a8c64b7a18eec9a1372":{"id":"4fb31128a76c6a8c64b7a18eec9a1372","name":"Village, Studio Coiffure Perron + Aitken","description":"\r\n\r\n\r\n\r\n","openingDate":"2009-11-02","webSiteUrl":"http:\/\/www.salon-perron-aitken.com","globalStatus":"up","massTransitInfo":"Metro Berri (coin de Maisonneuve)","contactPhoneNumber":"(514) 524-3442","civicNumber":"1493","streetAddress":"rue Amherst","city":"Montreal","province":"QC","country":"CANADA","postalCode":"H2L 3L2","lat":45.51803,"lng":-73.558295},"819794ab3714eefe4770deffc156420e":{"id":"819794ab3714eefe4770deffc156420e","name":"Village, Voyages Terre des Hommes","description":"Agence de voyage\r\n\r\n\r\n","openingDate":"2006-07-28","webSiteUrl":"http:\/\/www.voyagesexpress.com","globalStatus":"up","massTransitInfo":"M\u00e9tro Beaudry","contactPhoneNumber":"514-522-7987","civicNumber":"1201","streetAddress":"Ste-Catherine est","city":"Montr\u00e9al","province":"QC","country":"Canada","postalCode":"H2L 2H1","lat":45.518459,"lng":-73.556288},"d87bcdc951e4ee64b2a172a94f11b0d3":{"id":"d87bcdc951e4ee64b2a172a94f11b0d3","name":"Vinnie Gambini's (Marche Centrale)","description":"\r\n\r\n\r\n\r\n\r\n","openingDate":"2010-01-30","webSiteUrl":"http:\/\/www.vinniegambinis.com","globalStatus":"down","massTransitInfo":"","contactPhoneNumber":"514-387-8464","civicNumber":"951","streetAddress":"Cremazie O.","city":"Montreal","province":"Qc","country":"Canada","postalCode":"H4N 3M5","lat":45.532267,"lng":-73.648599}}